City,Country Code,Latitude,Longitude,URL,Name,Max Temperature,Humidity,Cloud Cover,Wind Speed,Date
yellowknife,CA,62.45,-114.38,http://api.openweathermap.org/data/2.5/weather?appid=fe26e61e3773caebdade519f9d254704&units=imperial&q=yellowknife,Canada,66.2,63.0,75.0,12.75,1561577472.0
attawapiskat,CA,,,http://api.openweathermap.org/data/2.5/weather?appid=fe26e61e3773caebdade519f9d254704&units=imperial&q=attawapiskat,Canada,,,,,
torbay,CA,47.66,-52.73,http://api.openweathermap.org/data/2.5/weather?appid=fe26e61e3773caebdade519f9d254704&units=imperial&q=torbay,Canada,62.01,62.0,20.0,10.29,1561577472.0
the pas,CA,53.82,-101.24,http://api.openweathermap.org/data/2.5/weather?appid=fe26e61e3773caebdade519f9d254704&units=imperial&q=the pas,Canada,68.0,56.0,90.0,9.17,1561577475.0
iqaluit,CA,63.75,-68.52,http://api.openweathermap.org/data/2.5/weather?appid=fe26e61e3773caebdade519f9d254704&units=imperial&q=iqaluit,Canada,44.6,75.0,20.0,6.93,1561577475.0
tuktoyaktuk,CA,69.44,-133.03,http://api.openweathermap.org/data/2.5/weather?appid=fe26e61e3773caebdade519f9d254704&units=imperial&q=tuktoyaktuk,Canada,39.2,80.0,90.0,14.99,1561577476.0
hay river,CA,60.82,-115.79,http://api.openweathermap.org/data/2.5/weather?appid=fe26e61e3773caebdade519f9d254704&units=imperial&q=hay river,Canada,62.6,51.0,75.0,6.93,1561577476.0
chapais,CA,49.78,-74.86,http://api.openweathermap.org/data/2.5/weather?appid=fe26e61e3773caebdade519f9d254704&units=imperial&q=chapais,Canada,64.4,82.0,90.0,12.75,1561577476.0
port hardy,CA,50.7,-127.42,http://api.openweathermap.org/data/2.5/weather?appid=fe26e61e3773caebdade519f9d254704&units=imperial&q=port hardy,Canada,53.6,93.0,75.0,6.93,1561577476.0
norman wells,CA,65.28,-126.83,http://api.openweathermap.org/data/2.5/weather?appid=fe26e61e3773caebdade519f9d254704&units=imperial&q=norman wells,Canada,53.6,50.0,40.0,12.75,1561577476.0
thompson,CA,55.74,-97.86,http://api.openweathermap.org/data/2.5/weather?appid=fe26e61e3773caebdade519f9d254704&units=imperial&q=thompson,Canada,59.0,77.0,90.0,2.24,1561577477.0
haines junction,CA,60.75,-137.51,http://api.openweathermap.org/data/2.5/weather?appid=fe26e61e3773caebdade519f9d254704&units=imperial&q=haines junction,Canada,60.89,60.0,98.0,0.67,1561577477.0
fort nelson,CA,58.81,-122.69,http://api.openweathermap.org/data/2.5/weather?appid=fe26e61e3773caebdade519f9d254704&units=imperial&q=fort nelson,Canada,60.8,72.0,90.0,12.75,1561577477.0
pangnirtung,CA,66.15,-65.72,http://api.openweathermap.org/data/2.5/weather?appid=fe26e61e3773caebdade519f9d254704&units=imperial&q=pangnirtung,Canada,44.6,81.0,20.0,9.17,1561577477.0
clyde river,CA,70.47,-68.59,http://api.openweathermap.org/data/2.5/weather?appid=fe26e61e3773caebdade519f9d254704&units=imperial&q=clyde river,Canada,41.0,80.0,75.0,16.11,1561577435.0
rimbey,CA,52.64,-114.24,http://api.openweathermap.org/data/2.5/weather?appid=fe26e61e3773caebdade519f9d254704&units=imperial&q=rimbey,Canada,64.4,59.0,75.0,5.82,1561577477.0
sept-iles,CA,50.2,-66.38,http://api.openweathermap.org/data/2.5/weather?appid=fe26e61e3773caebdade519f9d254704&units=imperial&q=sept-iles,Canada,57.2,82.0,90.0,11.41,1561577191.0
kenora,CA,49.76,-94.48,http://api.openweathermap.org/data/2.5/weather?appid=fe26e61e3773caebdade519f9d254704&units=imperial&q=kenora,Canada,77.0,41.0,75.0,11.41,1561577472.0
assiniboia,CA,49.63,-105.99,http://api.openweathermap.org/data/2.5/weather?appid=fe26e61e3773caebdade519f9d254704&units=imperial&q=assiniboia,Canada,74.39,34.0,22.0,3.78,1561577478.0
humboldt,CA,52.21,-105.12,http://api.openweathermap.org/data/2.5/weather?appid=fe26e61e3773caebdade519f9d254704&units=imperial&q=humboldt,Canada,67.91,55.0,44.0,6.76,1561577478.0
thessalon,CA,46.26,-83.55,http://api.openweathermap.org/data/2.5/weather?appid=fe26e61e3773caebdade519f9d254704&units=imperial&q=thessalon,Canada,77.0,53.0,40.0,5.82,1561577478.0
la ronge,CA,55.1,-105.3,http://api.openweathermap.org/data/2.5/weather?appid=fe26e61e3773caebdade519f9d254704&units=imperial&q=la ronge,Canada,64.4,63.0,75.0,2.24,1561577479.0
alexandria,CA,43.97,25.33,http://api.openweathermap.org/data/2.5/weather?appid=fe26e61e3773caebdade519f9d254704&units=imperial&q=alexandria,Canada,76.01,65.0,8.0,6.04,1561577257.0
hare bay,CA,48.86,-53.99,http://api.openweathermap.org/data/2.5/weather?appid=fe26e61e3773caebdade519f9d254704&units=imperial&q=hare bay,Canada,64.4,48.0,20.0,2.24,1561577479.0
dolbeau,CA,,,http://api.openweathermap.org/data/2.5/weather?appid=fe26e61e3773caebdade519f9d254704&units=imperial&q=dolbeau,Canada,,,,,
aklavik,CA,68.22,-135.01,http://api.openweathermap.org/data/2.5/weather?appid=fe26e61e3773caebdade519f9d254704&units=imperial&q=aklavik,Canada,50.0,66.0,40.0,4.7,1561577284.0
mayo,CA,63.59,-135.9,http://api.openweathermap.org/data/2.5/weather?appid=fe26e61e3773caebdade519f9d254704&units=imperial&q=mayo,Canada,66.2,32.0,40.0,8.05,1561577479.0
cape town,ZA,-33.93,18.42,http://api.openweathermap.org/data/2.5/weather?appid=fe26e61e3773caebdade519f9d254704&units=imperial&q=cape town,South Africa,55.99,93.0,0.0,5.82,1561577376.0
bredasdorp,ZA,-34.53,20.04,http://api.openweathermap.org/data/2.5/weather?appid=fe26e61e3773caebdade519f9d254704&units=imperial&q=bredasdorp,South Africa,54.0,93.0,0.0,3.65,1561577480.0
plettenberg bay,ZA,-34.05,23.37,http://api.openweathermap.org/data/2.5/weather?appid=fe26e61e3773caebdade519f9d254704&units=imperial&q=plettenberg bay,South Africa,54.23,63.0,0.0,3.06,1561577480.0
hermanus,ZA,-34.42,19.24,http://api.openweathermap.org/data/2.5/weather?appid=fe26e61e3773caebdade519f9d254704&units=imperial&q=hermanus,South Africa,55.99,93.0,0.0,1.99,1561577402.0
kruisfontein,ZA,-34.0,24.73,http://api.openweathermap.org/data/2.5/weather?appid=fe26e61e3773caebdade519f9d254704&units=imperial&q=kruisfontein,South Africa,54.41,94.0,39.0,5.64,1561577480.0
saldanha,ZA,41.42,-6.55,http://api.openweathermap.org/data/2.5/weather?appid=fe26e61e3773caebdade519f9d254704&units=imperial&q=saldanha,South Africa,68.99,59.0,0.0,1.81,1561577438.0
kokstad,ZA,-30.55,29.42,http://api.openweathermap.org/data/2.5/weather?appid=fe26e61e3773caebdade519f9d254704&units=imperial&q=kokstad,South Africa,42.89,65.0,12.0,6.24,1561577480.0
port alfred,ZA,-33.59,26.89,http://api.openweathermap.org/data/2.5/weather?appid=fe26e61e3773caebdade519f9d254704&units=imperial&q=port alfred,South Africa,60.01,90.0,98.0,1.01,1561577483.0
port shepstone,ZA,-30.74,30.45,http://api.openweathermap.org/data/2.5/weather?appid=fe26e61e3773caebdade519f9d254704&units=imperial&q=port shepstone,South Africa,57.29,91.0,26.0,11.92,1561577484.0
port elizabeth,ZA,39.31,-74.98,http://api.openweathermap.org/data/2.5/weather?appid=fe26e61e3773caebdade519f9d254704&units=imperial&q=port elizabeth,South Africa,91.0,40.0,1.0,8.05,1561577484.0
robertson,ZA,-34.59,150.59,http://api.openweathermap.org/data/2.5/weather?appid=fe26e61e3773caebdade519f9d254704&units=imperial&q=robertson,South Africa,50.0,100.0,90.0,8.05,1561577484.0
east london,ZA,-33.02,27.91,http://api.openweathermap.org/data/2.5/weather?appid=fe26e61e3773caebdade519f9d254704&units=imperial&q=east london,South Africa,60.8,93.0,40.0,8.05,1561577484.0
butterworth,ZA,5.4,100.37,http://api.openweathermap.org/data/2.5/weather?appid=fe26e61e3773caebdade519f9d254704&units=imperial&q=butterworth,South Africa,82.0,88.0,75.0,2.24,1561577484.0
hobart,AU,-42.88,147.33,http://api.openweathermap.org/data/2.5/weather?appid=fe26e61e3773caebdade519f9d254704&units=imperial&q=hobart,Australia,44.6,81.0,0.0,12.75,1561577239.0
carnarvon,AU,-30.97,22.13,http://api.openweathermap.org/data/2.5/weather?appid=fe26e61e3773caebdade519f9d254704&units=imperial&q=carnarvon,Australia,42.53,37.0,0.0,5.35,1561577484.0
roma,AU,41.89,12.48,http://api.openweathermap.org/data/2.5/weather?appid=fe26e61e3773caebdade519f9d254704&units=imperial&q=roma,Australia,87.8,51.0,0.0,1.12,1561577225.0
albany,AU,42.65,-73.75,http://api.openweathermap.org/data/2.5/weather?appid=fe26e61e3773caebdade519f9d254704&units=imperial&q=albany,Australia,88.0,42.0,40.0,3.36,1561577333.0
busselton,AU,-33.64,115.35,http://api.openweathermap.org/data/2.5/weather?appid=fe26e61e3773caebdade519f9d254704&units=imperial&q=busselton,Australia,57.0,45.0,3.0,32.66,1561577485.0
biloela,AU,-24.4,150.51,http://api.openweathermap.org/data/2.5/weather?appid=fe26e61e3773caebdade519f9d254704&units=imperial&q=biloela,Australia,61.07,83.0,95.0,16.71,1561577485.0
new norfolk,AU,-42.78,147.06,http://api.openweathermap.org/data/2.5/weather?appid=fe26e61e3773caebdade519f9d254704&units=imperial&q=new norfolk,Australia,44.6,81.0,0.0,12.75,1561577485.0
esperance,AU,-33.86,121.89,http://api.openweathermap.org/data/2.5/weather?appid=fe26e61e3773caebdade519f9d254704&units=imperial&q=esperance,Australia,53.6,93.0,90.0,12.75,1561577485.0
alyangula,AU,-13.85,136.42,http://api.openweathermap.org/data/2.5/weather?appid=fe26e61e3773caebdade519f9d254704&units=imperial&q=alyangula,Australia,57.2,93.0,90.0,9.86,1561577486.0
colac,AU,-38.34,143.59,http://api.openweathermap.org/data/2.5/weather?appid=fe26e61e3773caebdade519f9d254704&units=imperial&q=colac,Australia,48.0,87.0,96.0,5.99,1561577486.0
port augusta,AU,-32.49,137.76,http://api.openweathermap.org/data/2.5/weather?appid=fe26e61e3773caebdade519f9d254704&units=imperial&q=port augusta,Australia,54.0,87.0,0.0,6.93,1561577486.0
broome,AU,52.47,1.45,http://api.openweathermap.org/data/2.5/weather?appid=fe26e61e3773caebdade519f9d254704&units=imperial&q=broome,Australia,59.0,87.0,75.0,11.41,1561577486.0
portland,AU,43.66,-70.25,http://api.openweathermap.org/data/2.5/weather?appid=fe26e61e3773caebdade519f9d254704&units=imperial&q=portland,Australia,82.0,73.0,20.0,9.17,1561577209.0
nelson bay,AU,-32.72,152.14,http://api.openweathermap.org/data/2.5/weather?appid=fe26e61e3773caebdade519f9d254704&units=imperial&q=nelson bay,Australia,55.99,100.0,0.0,5.82,1561577487.0
mildura,AU,-34.18,142.16,http://api.openweathermap.org/data/2.5/weather?appid=fe26e61e3773caebdade519f9d254704&units=imperial&q=mildura,Australia,42.8,93.0,0.0,4.7,1561577487.0
flinders,AU,-34.58,150.85,http://api.openweathermap.org/data/2.5/weather?appid=fe26e61e3773caebdade519f9d254704&units=imperial&q=flinders,Australia,55.0,100.0,90.0,8.05,1561577487.0
mareeba,AU,-16.99,145.42,http://api.openweathermap.org/data/2.5/weather?appid=fe26e61e3773caebdade519f9d254704&units=imperial&q=mareeba,Australia,69.8,77.0,40.0,12.75,1561577487.0
emerald,AU,-23.53,148.16,http://api.openweathermap.org/data/2.5/weather?appid=fe26e61e3773caebdade519f9d254704&units=imperial&q=emerald,Australia,59.0,82.0,90.0,16.11,1561577487.0
port hedland,AU,-20.31,118.58,http://api.openweathermap.org/data/2.5/weather?appid=fe26e61e3773caebdade519f9d254704&units=imperial&q=port hedland,Australia,55.4,87.0,68.0,4.7,1561577469.0
port lincoln,AU,-34.72,135.86,http://api.openweathermap.org/data/2.5/weather?appid=fe26e61e3773caebdade519f9d254704&units=imperial&q=port lincoln,Australia,60.17,61.0,0.0,27.89,1561577488.0
ulladulla,AU,-35.36,150.48,http://api.openweathermap.org/data/2.5/weather?appid=fe26e61e3773caebdade519f9d254704&units=imperial&q=ulladulla,Australia,50.0,100.0,90.0,8.05,1561577488.0
wollongong,AU,-34.42,150.89,http://api.openweathermap.org/data/2.5/weather?appid=fe26e61e3773caebdade519f9d254704&units=imperial&q=wollongong,Australia,54.0,100.0,90.0,8.05,1561577488.0
ngukurr,AU,,,http://api.openweathermap.org/data/2.5/weather?appid=fe26e61e3773caebdade519f9d254704&units=imperial&q=ngukurr,Australia,,,,,
nhulunbuy,AU,-12.18,136.78,http://api.openweathermap.org/data/2.5/weather?appid=fe26e61e3773caebdade519f9d254704&units=imperial&q=nhulunbuy,Australia,64.4,93.0,45.0,3.36,1561577488.0
byron bay,AU,-28.65,153.62,http://api.openweathermap.org/data/2.5/weather?appid=fe26e61e3773caebdade519f9d254704&units=imperial&q=byron bay,Australia,60.01,100.0,75.0,6.93,1561577488.0
yulara,AU,-25.24,130.99,http://api.openweathermap.org/data/2.5/weather?appid=fe26e61e3773caebdade519f9d254704&units=imperial&q=yulara,Australia,41.0,48.0,18.0,5.82,1561577488.0
hervey bay,AU,-25.3,152.85,http://api.openweathermap.org/data/2.5/weather?appid=fe26e61e3773caebdade519f9d254704&units=imperial&q=hervey bay,Australia,63.0,93.0,40.0,10.29,1561577489.0
karratha,AU,-20.74,116.85,http://api.openweathermap.org/data/2.5/weather?appid=fe26e61e3773caebdade519f9d254704&units=imperial&q=karratha,Australia,64.31,62.0,99.0,4.92,1561577489.0
broken hill,AU,-31.97,141.45,http://api.openweathermap.org/data/2.5/weather?appid=fe26e61e3773caebdade519f9d254704&units=imperial&q=broken hill,Australia,48.2,76.0,0.0,13.87,1561577489.0
roebourne,AU,-20.77,117.15,http://api.openweathermap.org/data/2.5/weather?appid=fe26e61e3773caebdade519f9d254704&units=imperial&q=roebourne,Australia,63.23,50.0,85.0,3.85,1561577489.0
port macquarie,AU,-31.43,152.91,http://api.openweathermap.org/data/2.5/weather?appid=fe26e61e3773caebdade519f9d254704&units=imperial&q=port macquarie,Australia,55.99,100.0,40.0,2.06,1561577490.0
mount gambier,AU,-37.83,140.78,http://api.openweathermap.org/data/2.5/weather?appid=fe26e61e3773caebdade519f9d254704&units=imperial&q=mount gambier,Australia,50.0,76.0,33.0,11.41,1561577490.0
chokurdakh,RU,70.62,147.9,http://api.openweathermap.org/data/2.5/weather?appid=fe26e61e3773caebdade519f9d254704&units=imperial&q=chokurdakh,Russian Federation,60.89,38.0,0.0,12.8,1561577490.0
saskylakh,RU,71.97,114.09,http://api.openweathermap.org/data/2.5/weather?appid=fe26e61e3773caebdade519f9d254704&units=imperial&q=saskylakh,Russian Federation,51.89,81.0,100.0,20.22,1561577490.0
cherskiy,RU,68.75,161.3,http://api.openweathermap.org/data/2.5/weather?appid=fe26e61e3773caebdade519f9d254704&units=imperial&q=cherskiy,Russian Federation,63.05,36.0,32.0,9.62,1561577490.0
dikson,RU,73.51,80.55,http://api.openweathermap.org/data/2.5/weather?appid=fe26e61e3773caebdade519f9d254704&units=imperial&q=dikson,Russian Federation,33.35,97.0,100.0,15.55,1561577438.0
amderma,RU,,,http://api.openweathermap.org/data/2.5/weather?appid=fe26e61e3773caebdade519f9d254704&units=imperial&q=amderma,Russian Federation,,,,,
kytmanovo,RU,53.46,85.45,http://api.openweathermap.org/data/2.5/weather?appid=fe26e61e3773caebdade519f9d254704&units=imperial&q=kytmanovo,Russian Federation,52.97,90.0,0.0,5.23,1561577490.0
verkhnevilyuysk,RU,63.45,120.31,http://api.openweathermap.org/data/2.5/weather?appid=fe26e61e3773caebdade519f9d254704&units=imperial&q=verkhnevilyuysk,Russian Federation,60.89,83.0,0.0,1.92,1561577491.0
tigil,RU,57.8,158.67,http://api.openweathermap.org/data/2.5/weather?appid=fe26e61e3773caebdade519f9d254704&units=imperial&q=tigil,Russian Federation,55.13,73.0,65.0,7.25,1561577491.0
tiksi,RU,71.64,128.87,http://api.openweathermap.org/data/2.5/weather?appid=fe26e61e3773caebdade519f9d254704&units=imperial&q=tiksi,Russian Federation,63.05,55.0,0.0,9.31,1561577491.0
kholodnyy,RU,62.72,147.95,http://api.openweathermap.org/data/2.5/weather?appid=fe26e61e3773caebdade519f9d254704&units=imperial&q=kholodnyy,Russian Federation,58.37,44.0,68.0,9.19,1561577491.0
mirnyy,RU,56.57,36.46,http://api.openweathermap.org/data/2.5/weather?appid=fe26e61e3773caebdade519f9d254704&units=imperial&q=mirnyy,Russian Federation,51.35,93.0,62.0,2.73,1561577491.0
belushya guba,RU,,,http://api.openweathermap.org/data/2.5/weather?appid=fe26e61e3773caebdade519f9d254704&units=imperial&q=belushya guba,Russian Federation,,,,,
kamenka,RU,48.03,28.7,http://api.openweathermap.org/data/2.5/weather?appid=fe26e61e3773caebdade519f9d254704&units=imperial&q=kamenka,Russian Federation,69.01,78.0,54.0,3.2,1561577492.0
anadyr,RU,64.73,177.51,http://api.openweathermap.org/data/2.5/weather?appid=fe26e61e3773caebdade519f9d254704&units=imperial&q=anadyr,Russian Federation,46.4,87.0,75.0,17.9,1561577492.0
lukovetskiy,RU,64.29,41.92,http://api.openweathermap.org/data/2.5/weather?appid=fe26e61e3773caebdade519f9d254704&units=imperial&q=lukovetskiy,Russian Federation,59.0,77.0,40.0,2.24,1561577492.0
ostrovnoy,RU,68.05,39.51,http://api.openweathermap.org/data/2.5/weather?appid=fe26e61e3773caebdade519f9d254704&units=imperial&q=ostrovnoy,Russian Federation,53.51,69.0,100.0,13.31,1561577492.0
nizhneyansk,RU,,,http://api.openweathermap.org/data/2.5/weather?appid=fe26e61e3773caebdade519f9d254704&units=imperial&q=nizhneyansk,Russian Federation,,,,,
mys shmidta,RU,,,http://api.openweathermap.org/data/2.5/weather?appid=fe26e61e3773caebdade519f9d254704&units=imperial&q=mys shmidta,Russian Federation,,,,,
nikolskoye,RU,59.7,30.79,http://api.openweathermap.org/data/2.5/weather?appid=fe26e61e3773caebdade519f9d254704&units=imperial&q=nikolskoye,Russian Federation,62.01,67.0,0.0,2.24,1561577493.0
tazovskiy,RU,67.47,78.7,http://api.openweathermap.org/data/2.5/weather?appid=fe26e61e3773caebdade519f9d254704&units=imperial&q=tazovskiy,Russian Federation,40.91,72.0,100.0,9.26,1561577493.0
okha,RU,53.59,142.95,http://api.openweathermap.org/data/2.5/weather?appid=fe26e61e3773caebdade519f9d254704&units=imperial&q=okha,Russian Federation,41.27,97.0,100.0,16.75,1561577493.0
pervomayskiy,RU,53.24,40.29,http://api.openweathermap.org/data/2.5/weather?appid=fe26e61e3773caebdade519f9d254704&units=imperial&q=pervomayskiy,Russian Federation,58.55,88.0,70.0,7.92,1561577493.0
borogontsy,RU,62.67,131.17,http://api.openweathermap.org/data/2.5/weather?appid=fe26e61e3773caebdade519f9d254704&units=imperial&q=borogontsy,Russian Federation,62.15,55.0,0.0,2.84,1561577494.0
beringovskiy,RU,63.05,179.32,http://api.openweathermap.org/data/2.5/weather?appid=fe26e61e3773caebdade519f9d254704&units=imperial&q=beringovskiy,Russian Federation,44.15,92.0,100.0,3.96,1561577494.0
mnogovershinnyy,RU,53.94,139.92,http://api.openweathermap.org/data/2.5/weather?appid=fe26e61e3773caebdade519f9d254704&units=imperial&q=mnogovershinnyy,Russian Federation,46.85,72.0,16.0,4.81,1561577494.0
kargopol,RU,61.51,38.95,http://api.openweathermap.org/data/2.5/weather?appid=fe26e61e3773caebdade519f9d254704&units=imperial&q=kargopol,Russian Federation,46.13,87.0,5.0,4.76,1561577494.0
oktyabrskiy,RU,55.61,37.97,http://api.openweathermap.org/data/2.5/weather?appid=fe26e61e3773caebdade519f9d254704&units=imperial&q=oktyabrskiy,Russian Federation,59.0,87.0,75.0,2.24,1561577494.0
provideniya,RU,64.42,-173.23,http://api.openweathermap.org/data/2.5/weather?appid=fe26e61e3773caebdade519f9d254704&units=imperial&q=provideniya,Russian Federation,50.0,93.0,90.0,13.42,1561577494.0
taldan,RU,53.69,124.82,http://api.openweathermap.org/data/2.5/weather?appid=fe26e61e3773caebdade519f9d254704&units=imperial&q=taldan,Russian Federation,53.33,75.0,71.0,2.71,1561577495.0
kamen-na-obi,RU,53.79,81.35,http://api.openweathermap.org/data/2.5/weather?appid=fe26e61e3773caebdade519f9d254704&units=imperial&q=kamen-na-obi,Russian Federation,54.95,80.0,0.0,7.4,1561577495.0
khatanga,RU,71.98,102.47,http://api.openweathermap.org/data/2.5/weather?appid=fe26e61e3773caebdade519f9d254704&units=imperial&q=khatanga,Russian Federation,49.19,59.0,77.0,9.8,1561577213.0
lokosovo,RU,61.13,74.84,http://api.openweathermap.org/data/2.5/weather?appid=fe26e61e3773caebdade519f9d254704&units=imperial&q=lokosovo,Russian Federation,48.47,89.0,100.0,19.86,1561577495.0
togur,RU,58.36,82.83,http://api.openweathermap.org/data/2.5/weather?appid=fe26e61e3773caebdade519f9d254704&units=imperial&q=togur,Russian Federation,65.75,73.0,99.0,10.67,1561577495.0
leningradskiy,RU,69.38,178.42,http://api.openweathermap.org/data/2.5/weather?appid=fe26e61e3773caebdade519f9d254704&units=imperial&q=leningradskiy,Russian Federation,36.41,87.0,31.0,15.79,1561577442.0
gayny,RU,60.3,54.33,http://api.openweathermap.org/data/2.5/weather?appid=fe26e61e3773caebdade519f9d254704&units=imperial&q=gayny,Russian Federation,52.25,59.0,99.0,2.48,1561577496.0
deputatskiy,RU,69.3,139.9,http://api.openweathermap.org/data/2.5/weather?appid=fe26e61e3773caebdade519f9d254704&units=imperial&q=deputatskiy,Russian Federation,68.27,35.0,0.0,3.38,1561577496.0
synya,RU,65.37,58.04,http://api.openweathermap.org/data/2.5/weather?appid=fe26e61e3773caebdade519f9d254704&units=imperial&q=synya,Russian Federation,46.49,88.0,61.0,2.95,1561577496.0
ordynskoye,RU,54.37,81.9,http://api.openweathermap.org/data/2.5/weather?appid=fe26e61e3773caebdade519f9d254704&units=imperial&q=ordynskoye,Russian Federation,54.77,81.0,0.0,8.79,1561577496.0
dauriya,RU,49.93,116.85,http://api.openweathermap.org/data/2.5/weather?appid=fe26e61e3773caebdade519f9d254704&units=imperial&q=dauriya,Russian Federation,56.57,91.0,6.0,13.49,1561577496.0
tokur,RU,53.13,132.9,http://api.openweathermap.org/data/2.5/weather?appid=fe26e61e3773caebdade519f9d254704&units=imperial&q=tokur,Russian Federation,43.61,82.0,0.0,2.17,1561577496.0
fevralsk,RU,,,http://api.openweathermap.org/data/2.5/weather?appid=fe26e61e3773caebdade519f9d254704&units=imperial&q=fevralsk,Russian Federation,,,,,
almaznyy,RU,48.03,40.04,http://api.openweathermap.org/data/2.5/weather?appid=fe26e61e3773caebdade519f9d254704&units=imperial&q=almaznyy,Russian Federation,73.4,33.0,0.0,8.95,1561577497.0
vrangel,RU,42.73,133.08,http://api.openweathermap.org/data/2.5/weather?appid=fe26e61e3773caebdade519f9d254704&units=imperial&q=vrangel,Russian Federation,59.99,95.0,100.0,2.08,1561577497.0
staraya kulatka,RU,52.73,47.62,http://api.openweathermap.org/data/2.5/weather?appid=fe26e61e3773caebdade519f9d254704&units=imperial&q=staraya kulatka,Russian Federation,50.63,85.0,12.0,1.32,1561577497.0
petropavlovsk-kamchatskiy,RU,53.05,158.65,http://api.openweathermap.org/data/2.5/weather?appid=fe26e61e3773caebdade519f9d254704&units=imperial&q=petropavlovsk-kamchatskiy,Russian Federation,44.6,100.0,75.0,2.24,1561577497.0
pevek,RU,69.7,170.27,http://api.openweathermap.org/data/2.5/weather?appid=fe26e61e3773caebdade519f9d254704&units=imperial&q=pevek,Russian Federation,34.25,84.0,20.0,12.48,1561577497.0
bilibino,RU,68.06,166.44,http://api.openweathermap.org/data/2.5/weather?appid=fe26e61e3773caebdade519f9d254704&units=imperial&q=bilibino,Russian Federation,53.69,44.0,12.0,3.71,1561577498.0
tumannyy,RU,,,http://api.openweathermap.org/data/2.5/weather?appid=fe26e61e3773caebdade519f9d254704&units=imperial&q=tumannyy,Russian Federation,,,,,
vostok,RU,46.45,135.83,http://api.openweathermap.org/data/2.5/weather?appid=fe26e61e3773caebdade519f9d254704&units=imperial&q=vostok,Russian Federation,59.81,99.0,100.0,2.91,1561577498.0
yar-sale,RU,66.83,70.83,http://api.openweathermap.org/data/2.5/weather?appid=fe26e61e3773caebdade519f9d254704&units=imperial&q=yar-sale,Russian Federation,45.59,76.0,84.0,5.95,1561577475.0
kamenskoye,RU,,,http://api.openweathermap.org/data/2.5/weather?appid=fe26e61e3773caebdade519f9d254704&units=imperial&q=kamenskoye,Russian Federation,,,,,
yerbogachen,RU,61.28,108.01,http://api.openweathermap.org/data/2.5/weather?appid=fe26e61e3773caebdade519f9d254704&units=imperial&q=yerbogachen,Russian Federation,62.15,68.0,0.0,2.19,1561577501.0
sentyabrskiy,RU,,,http://api.openweathermap.org/data/2.5/weather?appid=fe26e61e3773caebdade519f9d254704&units=imperial&q=sentyabrskiy,Russian Federation,,,,,
lavrentiya,RU,65.58,-170.99,http://api.openweathermap.org/data/2.5/weather?appid=fe26e61e3773caebdade519f9d254704&units=imperial&q=lavrentiya,Russian Federation,49.01,98.0,100.0,12.91,1561577501.0
khasan,RU,42.43,130.64,http://api.openweathermap.org/data/2.5/weather?appid=fe26e61e3773caebdade519f9d254704&units=imperial&q=khasan,Russian Federation,63.77,94.0,93.0,3.02,1561577502.0
zhigalovo,RU,54.81,105.15,http://api.openweathermap.org/data/2.5/weather?appid=fe26e61e3773caebdade519f9d254704&units=imperial&q=zhigalovo,Russian Federation,54.41,98.0,100.0,2.86,1561577502.0
talakan,RU,50.29,130.28,http://api.openweathermap.org/data/2.5/weather?appid=fe26e61e3773caebdade519f9d254704&units=imperial&q=talakan,Russian Federation,54.59,90.0,100.0,5.55,1561577502.0
baykit,RU,61.68,96.39,http://api.openweathermap.org/data/2.5/weather?appid=fe26e61e3773caebdade519f9d254704&units=imperial&q=baykit,Russian Federation,60.53,77.0,90.0,2.19,1561577502.0
srednekolymsk,RU,67.46,153.71,http://api.openweathermap.org/data/2.5/weather?appid=fe26e61e3773caebdade519f9d254704&units=imperial&q=srednekolymsk,Russian Federation,59.09,37.0,57.0,20.49,1561577502.0
gari,RU,59.43,62.35,http://api.openweathermap.org/data/2.5/weather?appid=fe26e61e3773caebdade519f9d254704&units=imperial&q=gari,Russian Federation,51.71,64.0,95.0,2.08,1561577502.0
shakhovskaya,RU,56.03,35.51,http://api.openweathermap.org/data/2.5/weather?appid=fe26e61e3773caebdade519f9d254704&units=imperial&q=shakhovskaya,Russian Federation,54.95,92.0,97.0,2.19,1561577503.0
solovetskiy,RU,,,http://api.openweathermap.org/data/2.5/weather?appid=fe26e61e3773caebdade519f9d254704&units=imperial&q=solovetskiy,Russian Federation,,,,,
svetlaya,RU,46.54,138.33,http://api.openweathermap.org/data/2.5/weather?appid=fe26e61e3773caebdade519f9d254704&units=imperial&q=svetlaya,Russian Federation,44.87,99.0,100.0,3.4,1561577503.0
talnakh,RU,69.49,88.39,http://api.openweathermap.org/data/2.5/weather?appid=fe26e61e3773caebdade519f9d254704&units=imperial&q=talnakh,Russian Federation,39.2,64.0,40.0,8.95,1561577503.0
ust-kut,RU,56.78,105.75,http://api.openweathermap.org/data/2.5/weather?appid=fe26e61e3773caebdade519f9d254704&units=imperial&q=ust-kut,Russian Federation,56.21,71.0,10.0,4.72,1561577503.0
ola,RU,59.58,151.3,http://api.openweathermap.org/data/2.5/weather?appid=fe26e61e3773caebdade519f9d254704&units=imperial&q=ola,Russian Federation,50.81,71.0,0.0,3.8,1561577504.0
kosh-agach,RU,49.99,88.66,http://api.openweathermap.org/data/2.5/weather?appid=fe26e61e3773caebdade519f9d254704&units=imperial&q=kosh-agach,Russian Federation,42.89,64.0,100.0,3.67,1561577504.0
usinsk,RU,66.0,57.56,http://api.openweathermap.org/data/2.5/weather?appid=fe26e61e3773caebdade519f9d254704&units=imperial&q=usinsk,Russian Federation,45.41,79.0,38.0,8.03,1561577504.0
khani,RU,41.96,42.96,http://api.openweathermap.org/data/2.5/weather?appid=fe26e61e3773caebdade519f9d254704&units=imperial&q=khani,Russian Federation,77.0,94.0,90.0,8.05,1561577504.0
onega,RU,63.91,38.09,http://api.openweathermap.org/data/2.5/weather?appid=fe26e61e3773caebdade519f9d254704&units=imperial&q=onega,Russian Federation,52.97,66.0,100.0,6.85,1561577504.0
komsomolskiy,RU,67.55,63.78,http://api.openweathermap.org/data/2.5/weather?appid=fe26e61e3773caebdade519f9d254704&units=imperial&q=komsomolskiy,Russian Federation,40.01,86.0,92.0,4.65,1561577504.0
magadan,RU,59.56,150.8,http://api.openweathermap.org/data/2.5/weather?appid=fe26e61e3773caebdade519f9d254704&units=imperial&q=magadan,Russian Federation,51.53,71.0,0.0,6.71,1561577505.0
severo-kurilsk,RU,50.68,156.12,http://api.openweathermap.org/data/2.5/weather?appid=fe26e61e3773caebdade519f9d254704&units=imperial&q=severo-kurilsk,Russian Federation,40.37,97.0,100.0,5.57,1561577505.0
suntar,RU,62.16,117.65,http://api.openweathermap.org/data/2.5/weather?appid=fe26e61e3773caebdade519f9d254704&units=imperial&q=suntar,Russian Federation,60.53,80.0,67.0,2.93,1561577505.0
severo-yeniseyskiy,RU,60.37,93.04,http://api.openweathermap.org/data/2.5/weather?appid=fe26e61e3773caebdade519f9d254704&units=imperial&q=severo-yeniseyskiy,Russian Federation,59.27,71.0,93.0,3.06,1561577505.0
ayan,RU,38.23,44.7,http://api.openweathermap.org/data/2.5/weather?appid=fe26e61e3773caebdade519f9d254704&units=imperial&q=ayan,Russian Federation,59.27,56.0,0.0,3.53,1561577505.0
blagoveshchensk,RU,50.29,127.53,http://api.openweathermap.org/data/2.5/weather?appid=fe26e61e3773caebdade519f9d254704&units=imperial&q=blagoveshchensk,Russian Federation,53.6,100.0,40.0,6.71,1561577505.0
udachnyy,RU,66.42,112.4,http://api.openweathermap.org/data/2.5/weather?appid=fe26e61e3773caebdade519f9d254704&units=imperial&q=udachnyy,Russian Federation,64.4,48.0,0.0,4.47,1561577506.0
olenegorsk,RU,68.14,33.28,http://api.openweathermap.org/data/2.5/weather?appid=fe26e61e3773caebdade519f9d254704&units=imperial&q=olenegorsk,Russian Federation,51.71,71.0,100.0,2.1,1561577506.0
belyy yar,RU,53.6,91.39,http://api.openweathermap.org/data/2.5/weather?appid=fe26e61e3773caebdade519f9d254704&units=imperial&q=belyy yar,Russian Federation,60.8,82.0,0.0,0.85,1561577506.0
ushuaia,AR,-54.81,-68.31,http://api.openweathermap.org/data/2.5/weather?appid=fe26e61e3773caebdade519f9d254704&units=imperial&q=ushuaia,Argentina,30.2,80.0,75.0,18.34,1561577293.0
rio gallegos,AR,-51.62,-69.22,http://api.openweathermap.org/data/2.5/weather?appid=fe26e61e3773caebdade519f9d254704&units=imperial&q=rio gallegos,Argentina,35.6,74.0,20.0,14.99,1561577400.0
comodoro rivadavia,AR,-45.87,-67.48,http://api.openweathermap.org/data/2.5/weather?appid=fe26e61e3773caebdade519f9d254704&units=imperial&q=comodoro rivadavia,Argentina,53.6,58.0,0.0,27.51,1561577486.0
mar del plata,AR,-46.43,-67.52,http://api.openweathermap.org/data/2.5/weather?appid=fe26e61e3773caebdade519f9d254704&units=imperial&q=mar del plata,Argentina,49.37,44.0,100.0,21.88,1561577323.0
general pico,AR,-35.66,-63.75,http://api.openweathermap.org/data/2.5/weather?appid=fe26e61e3773caebdade519f9d254704&units=imperial&q=general pico,Argentina,50.81,34.0,96.0,6.11,1561577495.0
san juan,AR,-31.54,-68.53,http://api.openweathermap.org/data/2.5/weather?appid=fe26e61e3773caebdade519f9d254704&units=imperial&q=san juan,Argentina,50.99,27.0,16.0,7.23,1561577508.0
reconquista,AR,-29.14,-59.64,http://api.openweathermap.org/data/2.5/weather?appid=fe26e61e3773caebdade519f9d254704&units=imperial&q=reconquista,Argentina,49.19,58.0,0.0,4.12,1561577508.0
tres arroyos,AR,-38.38,-60.28,http://api.openweathermap.org/data/2.5/weather?appid=fe26e61e3773caebdade519f9d254704&units=imperial&q=tres arroyos,Argentina,51.89,33.0,98.0,20.18,1561577508.0
necochea,AR,-38.55,-58.74,http://api.openweathermap.org/data/2.5/weather?appid=fe26e61e3773caebdade519f9d254704&units=imperial&q=necochea,Argentina,55.99,36.0,33.0,14.0,1561577508.0
concordia,AR,-31.4,-58.02,http://api.openweathermap.org/data/2.5/weather?appid=fe26e61e3773caebdade519f9d254704&units=imperial&q=concordia,Argentina,57.99,37.0,0.0,8.99,1561577508.0
presidencia roque saenz pena,AR,-26.79,-60.44,http://api.openweathermap.org/data/2.5/weather?appid=fe26e61e3773caebdade519f9d254704&units=imperial&q=presidencia roque saenz pena,Argentina,53.33,50.0,0.0,5.21,1561577508.0
rawson,AR,-43.3,-65.11,http://api.openweathermap.org/data/2.5/weather?appid=fe26e61e3773caebdade519f9d254704&units=imperial&q=rawson,Argentina,50.27,47.0,80.0,16.69,1561577509.0
taolanaro,MG,,,http://api.openweathermap.org/data/2.5/weather?appid=fe26e61e3773caebdade519f9d254704&units=imperial&q=taolanaro,Madagascar,,,,,
tsihombe,MG,,,http://api.openweathermap.org/data/2.5/weather?appid=fe26e61e3773caebdade519f9d254704&units=imperial&q=tsihombe,Madagascar,,,,,
sambava,MG,-14.27,50.17,http://api.openweathermap.org/data/2.5/weather?appid=fe26e61e3773caebdade519f9d254704&units=imperial&q=sambava,Madagascar,66.65,85.0,0.0,3.31,1561577509.0
ampanihy,MG,-24.69,44.75,http://api.openweathermap.org/data/2.5/weather?appid=fe26e61e3773caebdade519f9d254704&units=imperial&q=ampanihy,Madagascar,65.03,85.0,0.0,10.33,1561577509.0
antsohihy,MG,-14.88,47.99,http://api.openweathermap.org/data/2.5/weather?appid=fe26e61e3773caebdade519f9d254704&units=imperial&q=antsohihy,Madagascar,76.37,66.0,0.0,21.72,1561577510.0
antalaha,MG,-14.9,50.28,http://api.openweathermap.org/data/2.5/weather?appid=fe26e61e3773caebdade519f9d254704&units=imperial&q=antalaha,Madagascar,64.67,97.0,27.0,3.89,1561577510.0
beloha,MG,-25.17,45.06,http://api.openweathermap.org/data/2.5/weather?appid=fe26e61e3773caebdade519f9d254704&units=imperial&q=beloha,Madagascar,65.93,81.0,0.0,12.55,1561577510.0
morondava,MG,-20.3,44.28,http://api.openweathermap.org/data/2.5/weather?appid=fe26e61e3773caebdade519f9d254704&units=imperial&q=morondava,Madagascar,76.73,60.0,0.0,10.58,1561577510.0
bluff,NZ,-23.58,149.07,http://api.openweathermap.org/data/2.5/weather?appid=fe26e61e3773caebdade519f9d254704&units=imperial&q=bluff,New Zealand,57.83,88.0,0.0,15.1,1561577470.0
tuatapere,NZ,-46.13,167.69,http://api.openweathermap.org/data/2.5/weather?appid=fe26e61e3773caebdade519f9d254704&units=imperial&q=tuatapere,New Zealand,48.99,82.0,100.0,5.01,1561577510.0
kaitangata,NZ,-46.28,169.85,http://api.openweathermap.org/data/2.5/weather?appid=fe26e61e3773caebdade519f9d254704&units=imperial&q=kaitangata,New Zealand,44.01,72.0,0.0,5.01,1561577511.0
ahipara,NZ,-35.17,173.16,http://api.openweathermap.org/data/2.5/weather?appid=fe26e61e3773caebdade519f9d254704&units=imperial&q=ahipara,New Zealand,55.85,67.0,0.0,15.41,1561577511.0
waharoa,NZ,-37.76,175.76,http://api.openweathermap.org/data/2.5/weather?appid=fe26e61e3773caebdade519f9d254704&units=imperial&q=waharoa,New Zealand,41.0,92.0,0.0,3.0,1561577511.0
whitianga,NZ,-36.83,175.7,http://api.openweathermap.org/data/2.5/weather?appid=fe26e61e3773caebdade519f9d254704&units=imperial&q=whitianga,New Zealand,39.99,97.0,10.0,4.83,1561577511.0
dunedin,NZ,-45.87,170.5,http://api.openweathermap.org/data/2.5/weather?appid=fe26e61e3773caebdade519f9d254704&units=imperial&q=dunedin,New Zealand,50.0,58.0,0.0,1.99,1561577497.0
ruatoria,NZ,,,http://api.openweathermap.org/data/2.5/weather?appid=fe26e61e3773caebdade519f9d254704&units=imperial&q=ruatoria,New Zealand,,,,,
kaeo,NZ,-35.1,173.78,http://api.openweathermap.org/data/2.5/weather?appid=fe26e61e3773caebdade519f9d254704&units=imperial&q=kaeo,New Zealand,44.01,95.0,5.0,4.0,1561577511.0
christchurch,NZ,-43.53,172.64,http://api.openweathermap.org/data/2.5/weather?appid=fe26e61e3773caebdade519f9d254704&units=imperial&q=christchurch,New Zealand,37.0,100.0,16.0,2.24,1561577416.0
waipawa,NZ,-39.94,176.59,http://api.openweathermap.org/data/2.5/weather?appid=fe26e61e3773caebdade519f9d254704&units=imperial&q=waipawa,New Zealand,30.0,95.0,0.0,2.21,1561577512.0
te anau,NZ,-45.41,167.72,http://api.openweathermap.org/data/2.5/weather?appid=fe26e61e3773caebdade519f9d254704&units=imperial&q=te anau,New Zealand,42.89,83.0,11.0,2.59,1561577512.0
ribeira grande,PT,38.52,-28.7,http://api.openweathermap.org/data/2.5/weather?appid=fe26e61e3773caebdade519f9d254704&units=imperial&q=ribeira grande,Portugal,66.2,63.0,40.0,10.29,1561577512.0
camacha,PT,33.08,-16.33,http://api.openweathermap.org/data/2.5/weather?appid=fe26e61e3773caebdade519f9d254704&units=imperial&q=camacha,Portugal,71.6,68.0,40.0,13.87,1561577512.0
praia da vitoria,PT,38.73,-27.07,http://api.openweathermap.org/data/2.5/weather?appid=fe26e61e3773caebdade519f9d254704&units=imperial&q=praia da vitoria,Portugal,69.01,72.0,20.0,14.45,1561577378.0
vila franca do campo,PT,37.72,-25.43,http://api.openweathermap.org/data/2.5/weather?appid=fe26e61e3773caebdade519f9d254704&units=imperial&q=vila franca do campo,Portugal,66.2,68.0,40.0,12.75,1561577487.0
lagoa,PT,37.14,-8.45,http://api.openweathermap.org/data/2.5/weather?appid=fe26e61e3773caebdade519f9d254704&units=imperial&q=lagoa,Portugal,73.0,82.0,20.0,9.17,1561577513.0
mataura,PF,-46.19,168.86,http://api.openweathermap.org/data/2.5/weather?appid=fe26e61e3773caebdade519f9d254704&units=imperial&q=mataura,French Polynesia,48.99,82.0,39.0,5.01,1561577513.0
atuona,PF,-9.8,-139.03,http://api.openweathermap.org/data/2.5/weather?appid=fe26e61e3773caebdade519f9d254704&units=imperial&q=atuona,French Polynesia,80.87,75.0,0.0,17.05,1561577513.0
moerai,PF,-22.43,-151.33,http://api.openweathermap.org/data/2.5/weather?appid=fe26e61e3773caebdade519f9d254704&units=imperial&q=moerai,French Polynesia,72.59,83.0,89.0,11.92,1561577513.0
vaitape,PF,-16.52,-151.75,http://api.openweathermap.org/data/2.5/weather?appid=fe26e61e3773caebdade519f9d254704&units=imperial&q=vaitape,French Polynesia,80.15,73.0,1.0,4.34,1561577513.0
rikitea,PF,-23.12,-134.97,http://api.openweathermap.org/data/2.5/weather?appid=fe26e61e3773caebdade519f9d254704&units=imperial&q=rikitea,French Polynesia,74.21,81.0,64.0,10.07,1561577514.0
teahupoo,PF,-17.83,-149.27,http://api.openweathermap.org/data/2.5/weather?appid=fe26e61e3773caebdade519f9d254704&units=imperial&q=teahupoo,French Polynesia,78.8,83.0,75.0,17.22,1561577514.0
faanui,PF,-16.48,-151.75,http://api.openweathermap.org/data/2.5/weather?appid=fe26e61e3773caebdade519f9d254704&units=imperial&q=faanui,French Polynesia,80.15,73.0,1.0,4.34,1561577514.0
avera,PF,33.19,-82.53,http://api.openweathermap.org/data/2.5/weather?appid=fe26e61e3773caebdade519f9d254704&units=imperial&q=avera,French Polynesia,89.6,52.0,40.0,3.36,1561577514.0
manati,CU,41.76,19.67,http://api.openweathermap.org/data/2.5/weather?appid=fe26e61e3773caebdade519f9d254704&units=imperial&q=manati,Cuba,86.0,42.0,40.0,9.17,1561577514.0
bahia honda,CU,22.9,-83.16,http://api.openweathermap.org/data/2.5/weather?appid=fe26e61e3773caebdade519f9d254704&units=imperial&q=bahia honda,Cuba,84.47,75.0,0.0,18.48,1561577514.0
muros,ES,42.77,-9.06,http://api.openweathermap.org/data/2.5/weather?appid=fe26e61e3773caebdade519f9d254704&units=imperial&q=muros,Spain,68.0,77.0,20.0,8.05,1561577515.0
los llanos de aridane,ES,28.66,-17.92,http://api.openweathermap.org/data/2.5/weather?appid=fe26e61e3773caebdade519f9d254704&units=imperial&q=los llanos de aridane,Spain,73.4,64.0,75.0,11.41,1561577515.0
betanzos,ES,43.28,-8.21,http://api.openweathermap.org/data/2.5/weather?appid=fe26e61e3773caebdade519f9d254704&units=imperial&q=betanzos,Spain,70.0,77.0,20.0,5.82,1561577515.0
canals,ES,38.96,-0.58,http://api.openweathermap.org/data/2.5/weather?appid=fe26e61e3773caebdade519f9d254704&units=imperial&q=canals,Spain,78.01,74.0,1.0,3.0,1561577515.0
mahon,ES,51.89,-8.4,http://api.openweathermap.org/data/2.5/weather?appid=fe26e61e3773caebdade519f9d254704&units=imperial&q=mahon,Spain,66.2,72.0,75.0,14.99,1561577515.0
bermeo,ES,43.42,-2.72,http://api.openweathermap.org/data/2.5/weather?appid=fe26e61e3773caebdade519f9d254704&units=imperial&q=bermeo,Spain,91.4,78.0,20.0,10.29,1561577516.0
aguimes,ES,27.91,-15.45,http://api.openweathermap.org/data/2.5/weather?appid=fe26e61e3773caebdade519f9d254704&units=imperial&q=aguimes,Spain,75.2,60.0,20.0,21.92,1561577516.0
vaini,TO,15.34,74.49,http://api.openweathermap.org/data/2.5/weather?appid=fe26e61e3773caebdade519f9d254704&units=imperial&q=vaini,Tonga,79.07,89.0,100.0,5.7,1561577432.0
saint-philippe,RE,45.36,-73.48,http://api.openweathermap.org/data/2.5/weather?appid=fe26e61e3773caebdade519f9d254704&units=imperial&q=saint-philippe,Réunion,82.99,51.0,75.0,8.05,1561577466.0
saint-leu,RE,-21.15,55.28,http://api.openweathermap.org/data/2.5/weather?appid=fe26e61e3773caebdade519f9d254704&units=imperial&q=saint-leu,Réunion,73.4,73.0,77.0,5.82,1561577516.0
saint-joseph,RE,43.56,6.97,http://api.openweathermap.org/data/2.5/weather?appid=fe26e61e3773caebdade519f9d254704&units=imperial&q=saint-joseph,Réunion,89.6,51.0,0.0,2.24,1561577516.0
chicama,PE,-7.84,-79.15,http://api.openweathermap.org/data/2.5/weather?appid=fe26e61e3773caebdade519f9d254704&units=imperial&q=chicama,Peru,68.0,72.0,20.0,11.41,1561577517.0
paramonga,PE,-10.68,-77.82,http://api.openweathermap.org/data/2.5/weather?appid=fe26e61e3773caebdade519f9d254704&units=imperial&q=paramonga,Peru,61.79,87.0,43.0,13.73,1561577517.0
marcona,PE,,,http://api.openweathermap.org/data/2.5/weather?appid=fe26e61e3773caebdade519f9d254704&units=imperial&q=marcona,Peru,,,,,
pimentel,PE,-3.7,-45.5,http://api.openweathermap.org/data/2.5/weather?appid=fe26e61e3773caebdade519f9d254704&units=imperial&q=pimentel,Peru,78.35,83.0,32.0,2.89,1561577517.0
sechura,PE,-5.56,-80.82,http://api.openweathermap.org/data/2.5/weather?appid=fe26e61e3773caebdade519f9d254704&units=imperial&q=sechura,Peru,66.47,82.0,1.0,14.38,1561577517.0
hualmay,PE,-11.1,-77.61,http://api.openweathermap.org/data/2.5/weather?appid=fe26e61e3773caebdade519f9d254704&units=imperial&q=hualmay,Peru,63.23,85.0,0.0,14.85,1561577517.0
pisco,PE,-13.71,-76.2,http://api.openweathermap.org/data/2.5/weather?appid=fe26e61e3773caebdade519f9d254704&units=imperial&q=pisco,Peru,71.6,30.0,20.0,12.75,1561577517.0
cayenne,GF,4.94,-52.33,http://api.openweathermap.org/data/2.5/weather?appid=fe26e61e3773caebdade519f9d254704&units=imperial&q=cayenne,French Guiana,80.6,78.0,75.0,4.7,1561577518.0
roura,GF,4.73,-52.33,http://api.openweathermap.org/data/2.5/weather?appid=fe26e61e3773caebdade519f9d254704&units=imperial&q=roura,French Guiana,80.6,78.0,75.0,4.7,1561577518.0
saint-georges,GF,46.12,-70.67,http://api.openweathermap.org/data/2.5/weather?appid=fe26e61e3773caebdade519f9d254704&units=imperial&q=saint-georges,French Guiana,78.01,54.0,21.0,4.14,1561577518.0
sinnamary,GF,5.38,-52.96,http://api.openweathermap.org/data/2.5/weather?appid=fe26e61e3773caebdade519f9d254704&units=imperial&q=sinnamary,French Guiana,79.61,84.0,95.0,15.7,1561577518.0
hilo,US,19.71,-155.08,http://api.openweathermap.org/data/2.5/weather?appid=fe26e61e3773caebdade519f9d254704&units=imperial&q=hilo,United States,78.01,73.0,75.0,8.05,1561577519.0
kapaa,US,22.08,-159.32,http://api.openweathermap.org/data/2.5/weather?appid=fe26e61e3773caebdade519f9d254704&units=imperial&q=kapaa,United States,78.8,83.0,90.0,17.22,1561577443.0
sunrise manor,US,36.21,-115.07,http://api.openweathermap.org/data/2.5/weather?appid=fe26e61e3773caebdade519f9d254704&units=imperial&q=sunrise manor,United States,96.01,12.0,1.0,13.87,1561577519.0
havelock,US,34.88,-76.9,http://api.openweathermap.org/data/2.5/weather?appid=fe26e61e3773caebdade519f9d254704&units=imperial&q=havelock,United States,93.99,38.0,40.0,8.05,1561577519.0
pahrump,US,36.21,-115.98,http://api.openweathermap.org/data/2.5/weather?appid=fe26e61e3773caebdade519f9d254704&units=imperial&q=pahrump,United States,93.0,8.0,1.0,17.22,1561577392.0
juneau,US,58.3,-134.42,http://api.openweathermap.org/data/2.5/weather?appid=fe26e61e3773caebdade519f9d254704&units=imperial&q=juneau,United States,66.2,68.0,75.0,10.29,1561577447.0
lompoc,US,34.64,-120.46,http://api.openweathermap.org/data/2.5/weather?appid=fe26e61e3773caebdade519f9d254704&units=imperial&q=lompoc,United States,71.6,60.0,1.0,13.87,1561577514.0
kodiak,US,39.95,-94.76,http://api.openweathermap.org/data/2.5/weather?appid=fe26e61e3773caebdade519f9d254704&units=imperial&q=kodiak,United States,84.0,61.0,1.0,12.75,1561577520.0
rogers,US,36.33,-94.12,http://api.openweathermap.org/data/2.5/weather?appid=fe26e61e3773caebdade519f9d254704&units=imperial&q=rogers,United States,88.0,66.0,75.0,9.17,1561577433.0
bethel,US,60.79,-161.76,http://api.openweathermap.org/data/2.5/weather?appid=fe26e61e3773caebdade519f9d254704&units=imperial&q=bethel,United States,66.2,77.0,90.0,18.34,1561577463.0
sand springs,US,36.14,-96.11,http://api.openweathermap.org/data/2.5/weather?appid=fe26e61e3773caebdade519f9d254704&units=imperial&q=sand springs,United States,90.0,59.0,1.0,11.41,1561577433.0
sitka,US,37.17,-99.65,http://api.openweathermap.org/data/2.5/weather?appid=fe26e61e3773caebdade519f9d254704&units=imperial&q=sitka,United States,89.01,49.0,98.0,17.0,1561577520.0
lamar,US,38.09,-102.62,http://api.openweathermap.org/data/2.5/weather?appid=fe26e61e3773caebdade519f9d254704&units=imperial&q=lamar,United States,90.0,33.0,1.0,9.17,1561577521.0
crestview,US,30.76,-86.57,http://api.openweathermap.org/data/2.5/weather?appid=fe26e61e3773caebdade519f9d254704&units=imperial&q=crestview,United States,96.8,41.0,1.0,4.7,1561577410.0
homer,US,59.64,-151.54,http://api.openweathermap.org/data/2.5/weather?appid=fe26e61e3773caebdade519f9d254704&units=imperial&q=homer,United States,66.99,87.0,1.0,11.41,1561577521.0
nome,US,30.04,-94.42,http://api.openweathermap.org/data/2.5/weather?appid=fe26e61e3773caebdade519f9d254704&units=imperial&q=nome,United States,91.4,70.0,40.0,9.17,1561577521.0
ewa beach,US,21.32,-158.01,http://api.openweathermap.org/data/2.5/weather?appid=fe26e61e3773caebdade519f9d254704&units=imperial&q=ewa beach,United States,77.0,100.0,90.0,3.36,1561577521.0
fallon,US,46.84,-105.12,http://api.openweathermap.org/data/2.5/weather?appid=fe26e61e3773caebdade519f9d254704&units=imperial&q=fallon,United States,80.6,32.0,1.0,4.7,1561577522.0
lumberton,US,30.27,-94.2,http://api.openweathermap.org/data/2.5/weather?appid=fe26e61e3773caebdade519f9d254704&units=imperial&q=lumberton,United States,91.4,70.0,40.0,9.17,1561577251.0
barrow,US,-38.31,-60.23,http://api.openweathermap.org/data/2.5/weather?appid=fe26e61e3773caebdade519f9d254704&units=imperial&q=barrow,United States,51.89,33.0,98.0,20.18,1561577522.0
susanville,US,40.42,-120.65,http://api.openweathermap.org/data/2.5/weather?appid=fe26e61e3773caebdade519f9d254704&units=imperial&q=susanville,United States,72.0,21.0,1.0,18.34,1561577417.0
green river,US,41.53,-109.47,http://api.openweathermap.org/data/2.5/weather?appid=fe26e61e3773caebdade519f9d254704&units=imperial&q=green river,United States,80.6,10.0,1.0,17.22,1561577525.0
altamont,US,49.4,-98.5,http://api.openweathermap.org/data/2.5/weather?appid=fe26e61e3773caebdade519f9d254704&units=imperial&q=altamont,United States,80.6,36.0,20.0,11.41,1561577525.0
ketchikan,US,55.34,-131.65,http://api.openweathermap.org/data/2.5/weather?appid=fe26e61e3773caebdade519f9d254704&units=imperial&q=ketchikan,United States,75.2,60.0,1.0,18.34,1561577526.0
half moon bay,US,37.46,-122.43,http://api.openweathermap.org/data/2.5/weather?appid=fe26e61e3773caebdade519f9d254704&units=imperial&q=half moon bay,United States,73.0,93.0,90.0,11.41,1561577300.0
albertville,US,45.68,6.39,http://api.openweathermap.org/data/2.5/weather?appid=fe26e61e3773caebdade519f9d254704&units=imperial&q=albertville,United States,84.2,69.0,0.0,2.24,1561577526.0
pineville,US,31.32,-92.43,http://api.openweathermap.org/data/2.5/weather?appid=fe26e61e3773caebdade519f9d254704&units=imperial&q=pineville,United States,91.0,66.0,1.0,12.75,1561577526.0
grand island,US,40.92,-98.34,http://api.openweathermap.org/data/2.5/weather?appid=fe26e61e3773caebdade519f9d254704&units=imperial&q=grand island,United States,82.99,51.0,1.0,20.8,1561577318.0
college station,US,30.63,-96.33,http://api.openweathermap.org/data/2.5/weather?appid=fe26e61e3773caebdade519f9d254704&units=imperial&q=college station,United States,91.4,62.0,75.0,10.29,1561577235.0
ahuimanu,US,21.44,-157.84,http://api.openweathermap.org/data/2.5/weather?appid=fe26e61e3773caebdade519f9d254704&units=imperial&q=ahuimanu,United States,77.0,100.0,90.0,3.36,1561577479.0
pacific grove,US,36.62,-121.92,http://api.openweathermap.org/data/2.5/weather?appid=fe26e61e3773caebdade519f9d254704&units=imperial&q=pacific grove,United States,78.01,72.0,1.0,9.17,1561577527.0
fairbanks,US,64.84,-147.72,http://api.openweathermap.org/data/2.5/weather?appid=fe26e61e3773caebdade519f9d254704&units=imperial&q=fairbanks,United States,73.4,26.0,1.0,6.93,1561577278.0
glendive,US,47.11,-104.71,http://api.openweathermap.org/data/2.5/weather?appid=fe26e61e3773caebdade519f9d254704&units=imperial&q=glendive,United States,80.6,32.0,1.0,4.7,1561577440.0
honolulu,US,21.3,-157.86,http://api.openweathermap.org/data/2.5/weather?appid=fe26e61e3773caebdade519f9d254704&units=imperial&q=honolulu,United States,77.0,83.0,75.0,3.36,1561577415.0
bar harbor,US,44.39,-68.2,http://api.openweathermap.org/data/2.5/weather?appid=fe26e61e3773caebdade519f9d254704&units=imperial&q=bar harbor,United States,60.01,93.0,90.0,6.93,1561577313.0
ukiah,US,39.15,-123.21,http://api.openweathermap.org/data/2.5/weather?appid=fe26e61e3773caebdade519f9d254704&units=imperial&q=ukiah,United States,75.0,45.0,90.0,8.05,1561577270.0
carbondale,US,38.82,-95.69,http://api.openweathermap.org/data/2.5/weather?appid=fe26e61e3773caebdade519f9d254704&units=imperial&q=carbondale,United States,84.99,54.0,1.0,12.75,1561577527.0
makakilo city,US,21.35,-158.09,http://api.openweathermap.org/data/2.5/weather?appid=fe26e61e3773caebdade519f9d254704&units=imperial&q=makakilo city,United States,77.0,100.0,90.0,3.36,1561577423.0
north myrtle beach,US,33.83,-78.68,http://api.openweathermap.org/data/2.5/weather?appid=fe26e61e3773caebdade519f9d254704&units=imperial&q=north myrtle beach,United States,93.0,46.0,75.0,5.86,1561577527.0
wichita falls,US,33.91,-98.49,http://api.openweathermap.org/data/2.5/weather?appid=fe26e61e3773caebdade519f9d254704&units=imperial&q=wichita falls,United States,91.4,49.0,1.0,11.41,1561577439.0
kenai,US,60.55,-151.26,http://api.openweathermap.org/data/2.5/weather?appid=fe26e61e3773caebdade519f9d254704&units=imperial&q=kenai,United States,66.99,87.0,90.0,6.93,1561577528.0
vernon,US,50.27,-119.27,http://api.openweathermap.org/data/2.5/weather?appid=fe26e61e3773caebdade519f9d254704&units=imperial&q=vernon,United States,80.01,60.0,40.0,8.05,1561577256.0
indiana,US,40.62,-79.15,http://api.openweathermap.org/data/2.5/weather?appid=fe26e61e3773caebdade519f9d254704&units=imperial&q=indiana,United States,87.01,61.0,75.0,9.17,1561577528.0
brownsville,US,25.91,-97.49,http://api.openweathermap.org/data/2.5/weather?appid=fe26e61e3773caebdade519f9d254704&units=imperial&q=brownsville,United States,93.2,59.0,20.0,12.75,1561577528.0
iwanai,JP,42.97,140.51,http://api.openweathermap.org/data/2.5/weather?appid=fe26e61e3773caebdade519f9d254704&units=imperial&q=iwanai,Japan,60.89,80.0,100.0,0.69,1561577529.0
ishinomaki,JP,38.42,141.3,http://api.openweathermap.org/data/2.5/weather?appid=fe26e61e3773caebdade519f9d254704&units=imperial&q=ishinomaki,Japan,66.65,76.0,100.0,0.76,1561577529.0
nemuro,JP,43.32,145.57,http://api.openweathermap.org/data/2.5/weather?appid=fe26e61e3773caebdade519f9d254704&units=imperial&q=nemuro,Japan,52.79,89.0,65.0,7.31,1561577399.0
hirara,JP,24.8,125.28,http://api.openweathermap.org/data/2.5/weather?appid=fe26e61e3773caebdade519f9d254704&units=imperial&q=hirara,Japan,82.85,81.0,35.0,13.33,1561577529.0
hasaki,JP,35.73,140.83,http://api.openweathermap.org/data/2.5/weather?appid=fe26e61e3773caebdade519f9d254704&units=imperial&q=hasaki,Japan,69.8,94.0,75.0,4.7,1561577529.0
yomitan,JP,,,http://api.openweathermap.org/data/2.5/weather?appid=fe26e61e3773caebdade519f9d254704&units=imperial&q=yomitan,Japan,,,,,
katsuura,JP,33.93,134.5,http://api.openweathermap.org/data/2.5/weather?appid=fe26e61e3773caebdade519f9d254704&units=imperial&q=katsuura,Japan,75.2,94.0,75.0,19.46,1561577530.0
naze,JP,5.43,7.07,http://api.openweathermap.org/data/2.5/weather?appid=fe26e61e3773caebdade519f9d254704&units=imperial&q=naze,Japan,71.87,97.0,100.0,3.24,1561577530.0
punta arenas,CL,-53.16,-70.91,http://api.openweathermap.org/data/2.5/weather?appid=fe26e61e3773caebdade519f9d254704&units=imperial&q=punta arenas,Chile,32.0,62.0,0.0,10.29,1561577530.0
coquimbo,CL,-29.95,-71.34,http://api.openweathermap.org/data/2.5/weather?appid=fe26e61e3773caebdade519f9d254704&units=imperial&q=coquimbo,Chile,59.0,62.0,0.0,8.05,1561577530.0
lebu,CL,8.96,38.73,http://api.openweathermap.org/data/2.5/weather?appid=fe26e61e3773caebdade519f9d254704&units=imperial&q=lebu,Chile,66.2,63.0,75.0,11.41,1561577531.0
castro,CL,-42.48,-73.76,http://api.openweathermap.org/data/2.5/weather?appid=fe26e61e3773caebdade519f9d254704&units=imperial&q=castro,Chile,48.2,87.0,75.0,10.29,1561577469.0
coihaique,CL,-45.58,-72.07,http://api.openweathermap.org/data/2.5/weather?appid=fe26e61e3773caebdade519f9d254704&units=imperial&q=coihaique,Chile,42.8,93.0,90.0,3.36,1561577505.0
ancud,CL,-41.87,-73.83,http://api.openweathermap.org/data/2.5/weather?appid=fe26e61e3773caebdade519f9d254704&units=imperial&q=ancud,Chile,48.2,87.0,75.0,10.29,1561577534.0
taltal,CL,-25.41,-70.49,http://api.openweathermap.org/data/2.5/weather?appid=fe26e61e3773caebdade519f9d254704&units=imperial&q=taltal,Chile,56.39,75.0,0.0,2.66,1561577534.0
antofagasta,CL,-23.65,-70.4,http://api.openweathermap.org/data/2.5/weather?appid=fe26e61e3773caebdade519f9d254704&units=imperial&q=antofagasta,Chile,59.0,72.0,75.0,13.87,1561577534.0
sao francisco,BR,-25.65,-53.85,http://api.openweathermap.org/data/2.5/weather?appid=fe26e61e3773caebdade519f9d254704&units=imperial&q=sao francisco,Brazil,59.0,82.0,90.0,4.7,1561577534.0
arraial do cabo,BR,-22.97,-42.02,http://api.openweathermap.org/data/2.5/weather?appid=fe26e61e3773caebdade519f9d254704&units=imperial&q=arraial do cabo,Brazil,89.6,43.0,0.0,8.05,1561577399.0
urucara,BR,-2.54,-57.76,http://api.openweathermap.org/data/2.5/weather?appid=fe26e61e3773caebdade519f9d254704&units=imperial&q=urucara,Brazil,85.73,65.0,53.0,3.04,1561577535.0
sao jose de piranhas,BR,-7.12,-38.5,http://api.openweathermap.org/data/2.5/weather?appid=fe26e61e3773caebdade519f9d254704&units=imperial&q=sao jose de piranhas,Brazil,76.19,49.0,100.0,2.66,1561577535.0
cidreira,BR,-30.17,-50.22,http://api.openweathermap.org/data/2.5/weather?appid=fe26e61e3773caebdade519f9d254704&units=imperial&q=cidreira,Brazil,48.47,56.0,33.0,3.58,1561577535.0
paracatu,BR,-17.22,-46.87,http://api.openweathermap.org/data/2.5/weather?appid=fe26e61e3773caebdade519f9d254704&units=imperial&q=paracatu,Brazil,71.33,45.0,0.0,3.51,1561577428.0
touros,BR,-5.2,-35.46,http://api.openweathermap.org/data/2.5/weather?appid=fe26e61e3773caebdade519f9d254704&units=imperial&q=touros,Brazil,82.4,69.0,20.0,11.41,1561577469.0
monte alegre,BR,-6.07,-35.33,http://api.openweathermap.org/data/2.5/weather?appid=fe26e61e3773caebdade519f9d254704&units=imperial&q=monte alegre,Brazil,82.4,65.0,20.0,14.99,1561577535.0
alenquer,BR,-1.95,-54.74,http://api.openweathermap.org/data/2.5/weather?appid=fe26e61e3773caebdade519f9d254704&units=imperial&q=alenquer,Brazil,82.4,78.0,75.0,9.17,1561577536.0
rio grande,BR,-32.03,-52.1,http://api.openweathermap.org/data/2.5/weather?appid=fe26e61e3773caebdade519f9d254704&units=imperial&q=rio grande,Brazil,57.2,35.0,0.0,9.17,1561577489.0
itagiba,BR,-29.52,-50.57,http://api.openweathermap.org/data/2.5/weather?appid=fe26e61e3773caebdade519f9d254704&units=imperial&q=itagiba,Brazil,55.99,75.0,0.0,4.7,1561577536.0
caceres,BR,5.53,-74.53,http://api.openweathermap.org/data/2.5/weather?appid=fe26e61e3773caebdade519f9d254704&units=imperial&q=caceres,Brazil,82.85,52.0,40.0,3.65,1561577536.0
belmonte,BR,40.36,-7.35,http://api.openweathermap.org/data/2.5/weather?appid=fe26e61e3773caebdade519f9d254704&units=imperial&q=belmonte,Brazil,73.99,40.0,0.0,2.77,1561577539.0
caravelas,BR,-17.73,-39.27,http://api.openweathermap.org/data/2.5/weather?appid=fe26e61e3773caebdade519f9d254704&units=imperial&q=caravelas,Brazil,76.37,77.0,100.0,8.7,1561577504.0
sao joao da barra,BR,-21.64,-41.05,http://api.openweathermap.org/data/2.5/weather?appid=fe26e61e3773caebdade519f9d254704&units=imperial&q=sao joao da barra,Brazil,82.4,58.0,0.0,11.41,1561577540.0
olinda,BR,-37.84,145.39,http://api.openweathermap.org/data/2.5/weather?appid=fe26e61e3773caebdade519f9d254704&units=imperial&q=olinda,Brazil,53.01,70.0,0.0,17.22,1561577540.0
trairi,BR,-3.28,-39.27,http://api.openweathermap.org/data/2.5/weather?appid=fe26e61e3773caebdade519f9d254704&units=imperial&q=trairi,Brazil,75.11,77.0,16.0,5.19,1561577505.0
sao joao de pirabas,BR,-0.77,-47.18,http://api.openweathermap.org/data/2.5/weather?appid=fe26e61e3773caebdade519f9d254704&units=imperial&q=sao joao de pirabas,Brazil,76.19,96.0,82.0,3.13,1561577540.0
maracaju,BR,-21.61,-55.17,http://api.openweathermap.org/data/2.5/weather?appid=fe26e61e3773caebdade519f9d254704&units=imperial&q=maracaju,Brazil,62.87,72.0,83.0,4.16,1561577540.0
jardim,BR,-21.48,-56.15,http://api.openweathermap.org/data/2.5/weather?appid=fe26e61e3773caebdade519f9d254704&units=imperial&q=jardim,Brazil,61.25,78.0,64.0,0.69,1561577540.0
laguna,BR,16.17,-88.94,http://api.openweathermap.org/data/2.5/weather?appid=fe26e61e3773caebdade519f9d254704&units=imperial&q=laguna,Brazil,91.4,59.0,40.0,9.17,1561577546.0
pocinhos,BR,-7.08,-36.06,http://api.openweathermap.org/data/2.5/weather?appid=fe26e61e3773caebdade519f9d254704&units=imperial&q=pocinhos,Brazil,71.6,100.0,75.0,11.41,1561577546.0
camocim,BR,-2.9,-40.84,http://api.openweathermap.org/data/2.5/weather?appid=fe26e61e3773caebdade519f9d254704&units=imperial&q=camocim,Brazil,79.25,75.0,73.0,4.65,1561577546.0
bonfim,BR,3.36,-59.84,http://api.openweathermap.org/data/2.5/weather?appid=fe26e61e3773caebdade519f9d254704&units=imperial&q=bonfim,Brazil,86.63,56.0,3.0,15.39,1561577547.0
urbano santos,BR,-3.2,-43.39,http://api.openweathermap.org/data/2.5/weather?appid=fe26e61e3773caebdade519f9d254704&units=imperial&q=urbano santos,Brazil,78.35,79.0,97.0,4.56,1561577547.0
ariquemes,BR,-9.91,-63.03,http://api.openweathermap.org/data/2.5/weather?appid=fe26e61e3773caebdade519f9d254704&units=imperial&q=ariquemes,Brazil,81.95,67.0,84.0,1.74,1561577547.0
boa vista,BR,2.82,-60.67,http://api.openweathermap.org/data/2.5/weather?appid=fe26e61e3773caebdade519f9d254704&units=imperial&q=boa vista,Brazil,87.8,58.0,40.0,9.17,1561577548.0
carutapera,BR,-1.2,-46.02,http://api.openweathermap.org/data/2.5/weather?appid=fe26e61e3773caebdade519f9d254704&units=imperial&q=carutapera,Brazil,79.43,80.0,100.0,6.96,1561577548.0
piacabucu,BR,-10.41,-36.43,http://api.openweathermap.org/data/2.5/weather?appid=fe26e61e3773caebdade519f9d254704&units=imperial&q=piacabucu,Brazil,76.55,83.0,0.0,10.89,1561577549.0
rawannawi,KI,,,http://api.openweathermap.org/data/2.5/weather?appid=fe26e61e3773caebdade519f9d254704&units=imperial&q=rawannawi,Kiribati,,,,,
butaritari,KI,3.07,172.79,http://api.openweathermap.org/data/2.5/weather?appid=fe26e61e3773caebdade519f9d254704&units=imperial&q=butaritari,Kiribati,83.57,73.0,100.0,15.77,1561577549.0
buariki,KI,,,http://api.openweathermap.org/data/2.5/weather?appid=fe26e61e3773caebdade519f9d254704&units=imperial&q=buariki,Kiribati,,,,,
avarua,CK,-21.21,-159.78,http://api.openweathermap.org/data/2.5/weather?appid=fe26e61e3773caebdade519f9d254704&units=imperial&q=avarua,Cook Islands,71.6,83.0,71.0,3.36,1561577441.0
barentsburg,SJ,,,http://api.openweathermap.org/data/2.5/weather?appid=fe26e61e3773caebdade519f9d254704&units=imperial&q=barentsburg,Svalbard and Jan Mayen,,,,,
longyearbyen,SJ,78.22,15.63,http://api.openweathermap.org/data/2.5/weather?appid=fe26e61e3773caebdade519f9d254704&units=imperial&q=longyearbyen,Svalbard and Jan Mayen,44.6,65.0,75.0,11.41,1561577549.0
labuhan,ID,-2.54,115.51,http://api.openweathermap.org/data/2.5/weather?appid=fe26e61e3773caebdade519f9d254704&units=imperial&q=labuhan,Indonesia,71.33,93.0,8.0,1.79,1561577550.0
bengkulu,ID,,,http://api.openweathermap.org/data/2.5/weather?appid=fe26e61e3773caebdade519f9d254704&units=imperial&q=bengkulu,Indonesia,,,,,
ambon,ID,47.55,-2.56,http://api.openweathermap.org/data/2.5/weather?appid=fe26e61e3773caebdade519f9d254704&units=imperial&q=ambon,Indonesia,89.6,74.0,0.0,6.93,1561577550.0
waingapu,ID,-9.65,120.26,http://api.openweathermap.org/data/2.5/weather?appid=fe26e61e3773caebdade519f9d254704&units=imperial&q=waingapu,Indonesia,64.85,88.0,0.0,8.63,1561577550.0
sorong,ID,-0.86,131.25,http://api.openweathermap.org/data/2.5/weather?appid=fe26e61e3773caebdade519f9d254704&units=imperial&q=sorong,Indonesia,75.65,92.0,100.0,8.01,1561577550.0
srandakan,ID,-7.94,110.25,http://api.openweathermap.org/data/2.5/weather?appid=fe26e61e3773caebdade519f9d254704&units=imperial&q=srandakan,Indonesia,76.37,80.0,100.0,11.65,1561577550.0
indramayu,ID,-4.05,103.78,http://api.openweathermap.org/data/2.5/weather?appid=fe26e61e3773caebdade519f9d254704&units=imperial&q=indramayu,Indonesia,66.29,94.0,10.0,3.33,1561577551.0
kendari,ID,-3.99,122.52,http://api.openweathermap.org/data/2.5/weather?appid=fe26e61e3773caebdade519f9d254704&units=imperial&q=kendari,Indonesia,69.71,94.0,7.0,2.13,1561577551.0
bima,ID,-8.45,118.73,http://api.openweathermap.org/data/2.5/weather?appid=fe26e61e3773caebdade519f9d254704&units=imperial&q=bima,Indonesia,63.95,96.0,2.0,2.24,1561577551.0
pringsewu,ID,-5.36,104.98,http://api.openweathermap.org/data/2.5/weather?appid=fe26e61e3773caebdade519f9d254704&units=imperial&q=pringsewu,Indonesia,71.87,97.0,58.0,1.95,1561577551.0
kualakapuas,ID,-3.01,114.39,http://api.openweathermap.org/data/2.5/weather?appid=fe26e61e3773caebdade519f9d254704&units=imperial&q=kualakapuas,Indonesia,72.77,96.0,7.0,2.13,1561577552.0
sampit,ID,-2.54,112.95,http://api.openweathermap.org/data/2.5/weather?appid=fe26e61e3773caebdade519f9d254704&units=imperial&q=sampit,Indonesia,73.13,99.0,67.0,2.08,1561577552.0
singaraja,ID,-8.11,115.08,http://api.openweathermap.org/data/2.5/weather?appid=fe26e61e3773caebdade519f9d254704&units=imperial&q=singaraja,Indonesia,77.81,69.0,0.0,5.7,1561577552.0
banjarmasin,ID,-3.32,114.59,http://api.openweathermap.org/data/2.5/weather?appid=fe26e61e3773caebdade519f9d254704&units=imperial&q=banjarmasin,Indonesia,76.01,87.0,33.0,8.86,1561577552.0
tidore,ID,,,http://api.openweathermap.org/data/2.5/weather?appid=fe26e61e3773caebdade519f9d254704&units=imperial&q=tidore,Indonesia,,,,,
amahai,ID,-3.31,129.0,http://api.openweathermap.org/data/2.5/weather?appid=fe26e61e3773caebdade519f9d254704&units=imperial&q=amahai,Indonesia,81.0,92.0,69.0,1.01,1561577552.0
palabuhanratu,ID,,,http://api.openweathermap.org/data/2.5/weather?appid=fe26e61e3773caebdade519f9d254704&units=imperial&q=palabuhanratu,Indonesia,,,,,
kupang,ID,-10.16,123.6,http://api.openweathermap.org/data/2.5/weather?appid=fe26e61e3773caebdade519f9d254704&units=imperial&q=kupang,Indonesia,73.85,70.0,0.0,16.4,1561577553.0
ternate,ID,14.29,120.72,http://api.openweathermap.org/data/2.5/weather?appid=fe26e61e3773caebdade519f9d254704&units=imperial&q=ternate,Indonesia,80.01,88.0,98.0,5.88,1561577553.0
sungairaya,ID,0.7,108.9,http://api.openweathermap.org/data/2.5/weather?appid=fe26e61e3773caebdade519f9d254704&units=imperial&q=sungairaya,Indonesia,83.57,80.0,54.0,13.53,1561577553.0
sumbawa,ID,,,http://api.openweathermap.org/data/2.5/weather?appid=fe26e61e3773caebdade519f9d254704&units=imperial&q=sumbawa,Indonesia,,,,,
gorontalo,ID,0.54,123.06,http://api.openweathermap.org/data/2.5/weather?appid=fe26e61e3773caebdade519f9d254704&units=imperial&q=gorontalo,Indonesia,75.83,91.0,17.0,7.25,1561577553.0
biak,ID,-0.91,122.88,http://api.openweathermap.org/data/2.5/weather?appid=fe26e61e3773caebdade519f9d254704&units=imperial&q=biak,Indonesia,64.85,98.0,100.0,4.41,1561577553.0
sorland,NO,67.67,12.69,http://api.openweathermap.org/data/2.5/weather?appid=fe26e61e3773caebdade519f9d254704&units=imperial&q=sorland,Norway,46.4,93.0,75.0,14.99,1561577553.0
vardo,NO,39.62,-77.74,http://api.openweathermap.org/data/2.5/weather?appid=fe26e61e3773caebdade519f9d254704&units=imperial&q=vardo,Norway,91.4,40.0,20.0,12.75,1561577554.0
havoysund,NO,71.0,24.66,http://api.openweathermap.org/data/2.5/weather?appid=fe26e61e3773caebdade519f9d254704&units=imperial&q=havoysund,Norway,50.0,76.0,75.0,17.22,1561577554.0
nesna,NO,66.2,13.02,http://api.openweathermap.org/data/2.5/weather?appid=fe26e61e3773caebdade519f9d254704&units=imperial&q=nesna,Norway,51.8,93.0,75.0,13.87,1561577554.0
sistranda,NO,63.73,8.83,http://api.openweathermap.org/data/2.5/weather?appid=fe26e61e3773caebdade519f9d254704&units=imperial&q=sistranda,Norway,53.01,93.0,75.0,16.11,1561577554.0
mehamn,NO,71.03,27.85,http://api.openweathermap.org/data/2.5/weather?appid=fe26e61e3773caebdade519f9d254704&units=imperial&q=mehamn,Norway,45.41,84.0,100.0,11.95,1561577554.0
skjervoy,NO,70.03,20.97,http://api.openweathermap.org/data/2.5/weather?appid=fe26e61e3773caebdade519f9d254704&units=imperial&q=skjervoy,Norway,57.2,87.0,75.0,1.12,1561577554.0
bud,NO,62.91,6.91,http://api.openweathermap.org/data/2.5/weather?appid=fe26e61e3773caebdade519f9d254704&units=imperial&q=bud,Norway,53.6,71.0,75.0,11.41,1561577555.0
groa,NO,48.67,-4.14,http://api.openweathermap.org/data/2.5/weather?appid=fe26e61e3773caebdade519f9d254704&units=imperial&q=groa,Norway,72.0,88.0,40.0,16.11,1561577555.0
zhangye,CN,38.94,100.46,http://api.openweathermap.org/data/2.5/weather?appid=fe26e61e3773caebdade519f9d254704&units=imperial&q=zhangye,China,55.85,59.0,100.0,7.74,1561577555.0
altay,CN,47.83,88.13,http://api.openweathermap.org/data/2.5/weather?appid=fe26e61e3773caebdade519f9d254704&units=imperial&q=altay,China,47.21,42.0,100.0,5.48,1561577555.0
yakeshi,CN,49.28,120.73,http://api.openweathermap.org/data/2.5/weather?appid=fe26e61e3773caebdade519f9d254704&units=imperial&q=yakeshi,China,56.21,94.0,100.0,13.49,1561577555.0
tongren,CN,27.72,109.18,http://api.openweathermap.org/data/2.5/weather?appid=fe26e61e3773caebdade519f9d254704&units=imperial&q=tongren,China,72.77,78.0,92.0,1.1,1561577556.0
dafeng,CN,33.2,120.46,http://api.openweathermap.org/data/2.5/weather?appid=fe26e61e3773caebdade519f9d254704&units=imperial&q=dafeng,China,73.0,83.0,67.0,2.86,1561577556.0
nangong,CN,37.36,115.37,http://api.openweathermap.org/data/2.5/weather?appid=fe26e61e3773caebdade519f9d254704&units=imperial&q=nangong,China,79.43,34.0,95.0,5.01,1561577556.0
pingzhuang,CN,,,http://api.openweathermap.org/data/2.5/weather?appid=fe26e61e3773caebdade519f9d254704&units=imperial&q=pingzhuang,China,,,,,
wuchang,CN,44.93,127.16,http://api.openweathermap.org/data/2.5/weather?appid=fe26e61e3773caebdade519f9d254704&units=imperial&q=wuchang,China,67.19,77.0,100.0,8.68,1561577556.0
dengfeng,CN,34.46,113.03,http://api.openweathermap.org/data/2.5/weather?appid=fe26e61e3773caebdade519f9d254704&units=imperial&q=dengfeng,China,74.57,57.0,100.0,3.18,1561577556.0
luan,CN,46.36,6.98,http://api.openweathermap.org/data/2.5/weather?appid=fe26e61e3773caebdade519f9d254704&units=imperial&q=luan,China,91.4,45.0,0.0,2.24,1561577557.0
hami,CN,42.84,93.51,http://api.openweathermap.org/data/2.5/weather?appid=fe26e61e3773caebdade519f9d254704&units=imperial&q=hami,China,68.63,21.0,0.0,14.27,1561577458.0
ninghai,CN,29.29,121.42,http://api.openweathermap.org/data/2.5/weather?appid=fe26e61e3773caebdade519f9d254704&units=imperial&q=ninghai,China,77.0,94.0,75.0,0.4,1561577557.0
tongzi,CN,28.78,105.09,http://api.openweathermap.org/data/2.5/weather?appid=fe26e61e3773caebdade519f9d254704&units=imperial&q=tongzi,China,71.51,98.0,100.0,5.66,1561577557.0
beidao,CN,34.57,105.89,http://api.openweathermap.org/data/2.5/weather?appid=fe26e61e3773caebdade519f9d254704&units=imperial&q=beidao,China,61.43,82.0,99.0,2.84,1561577557.0
hailar,CN,49.2,119.7,http://api.openweathermap.org/data/2.5/weather?appid=fe26e61e3773caebdade519f9d254704&units=imperial&q=hailar,China,58.37,89.0,100.0,14.81,1561577557.0
yumen,CN,40.29,97.04,http://api.openweathermap.org/data/2.5/weather?appid=fe26e61e3773caebdade519f9d254704&units=imperial&q=yumen,China,68.09,40.0,76.0,19.71,1561577557.0
xichang,CN,27.88,102.25,http://api.openweathermap.org/data/2.5/weather?appid=fe26e61e3773caebdade519f9d254704&units=imperial&q=xichang,China,58.91,97.0,100.0,1.88,1561577558.0
shache,CN,38.42,77.24,http://api.openweathermap.org/data/2.5/weather?appid=fe26e61e3773caebdade519f9d254704&units=imperial&q=shache,China,72.23,35.0,58.0,6.62,1561577558.0
lanzhou,CN,36.06,103.82,http://api.openweathermap.org/data/2.5/weather?appid=fe26e61e3773caebdade519f9d254704&units=imperial&q=lanzhou,China,53.6,100.0,90.0,2.24,1561577558.0
lasa,CN,34.92,32.53,http://api.openweathermap.org/data/2.5/weather?appid=fe26e61e3773caebdade519f9d254704&units=imperial&q=lasa,China,78.8,94.0,0.0,8.05,1561577558.0
chifeng,CN,42.27,118.96,http://api.openweathermap.org/data/2.5/weather?appid=fe26e61e3773caebdade519f9d254704&units=imperial&q=chifeng,China,66.47,63.0,100.0,7.23,1561577558.0
zhuanghe,CN,39.7,122.97,http://api.openweathermap.org/data/2.5/weather?appid=fe26e61e3773caebdade519f9d254704&units=imperial&q=zhuanghe,China,60.01,69.0,94.0,5.99,1561577559.0
dongsheng,CN,29.72,112.52,http://api.openweathermap.org/data/2.5/weather?appid=fe26e61e3773caebdade519f9d254704&units=imperial&q=dongsheng,China,74.39,72.0,100.0,0.98,1561577559.0
zhengjiatun,CN,43.51,123.51,http://api.openweathermap.org/data/2.5/weather?appid=fe26e61e3773caebdade519f9d254704&units=imperial&q=zhengjiatun,China,67.55,56.0,0.0,15.23,1561577559.0
korla,CN,,,http://api.openweathermap.org/data/2.5/weather?appid=fe26e61e3773caebdade519f9d254704&units=imperial&q=korla,China,,,,,
bhadrachalam,IN,17.67,80.89,http://api.openweathermap.org/data/2.5/weather?appid=fe26e61e3773caebdade519f9d254704&units=imperial&q=bhadrachalam,India,83.39,70.0,61.0,4.5,1561577559.0
daosa,IN,,,http://api.openweathermap.org/data/2.5/weather?appid=fe26e61e3773caebdade519f9d254704&units=imperial&q=daosa,India,,,,,
port blair,IN,11.67,92.75,http://api.openweathermap.org/data/2.5/weather?appid=fe26e61e3773caebdade519f9d254704&units=imperial&q=port blair,India,83.93,81.0,100.0,21.27,1561577559.0
kollam,IN,8.88,76.6,http://api.openweathermap.org/data/2.5/weather?appid=fe26e61e3773caebdade519f9d254704&units=imperial&q=kollam,India,82.4,83.0,40.0,5.82,1561577560.0
kavaratti,IN,10.57,72.64,http://api.openweathermap.org/data/2.5/weather?appid=fe26e61e3773caebdade519f9d254704&units=imperial&q=kavaratti,India,83.39,77.0,100.0,16.96,1561577424.0
madras,IN,44.63,-121.13,http://api.openweathermap.org/data/2.5/weather?appid=fe26e61e3773caebdade519f9d254704&units=imperial&q=madras,India,66.99,48.0,40.0,3.36,1561577560.0
naliya,IN,23.26,68.83,http://api.openweathermap.org/data/2.5/weather?appid=fe26e61e3773caebdade519f9d254704&units=imperial&q=naliya,India,84.47,82.0,1.0,17.27,1561577560.0
asifabad,IN,19.38,79.29,http://api.openweathermap.org/data/2.5/weather?appid=fe26e61e3773caebdade519f9d254704&units=imperial&q=asifabad,India,83.03,69.0,24.0,9.95,1561577560.0
gangotri,IN,,,http://api.openweathermap.org/data/2.5/weather?appid=fe26e61e3773caebdade519f9d254704&units=imperial&q=gangotri,India,,,,,
harda,IN,22.34,77.09,http://api.openweathermap.org/data/2.5/weather?appid=fe26e61e3773caebdade519f9d254704&units=imperial&q=harda,India,85.91,66.0,100.0,8.57,1561577561.0
ramnagar,IN,27.17,84.33,http://api.openweathermap.org/data/2.5/weather?appid=fe26e61e3773caebdade519f9d254704&units=imperial&q=ramnagar,India,90.77,58.0,100.0,7.83,1561577561.0
tharad,IN,24.39,71.63,http://api.openweathermap.org/data/2.5/weather?appid=fe26e61e3773caebdade519f9d254704&units=imperial&q=tharad,India,88.43,67.0,67.0,17.13,1561577561.0
ghatsila,IN,22.65,86.41,http://api.openweathermap.org/data/2.5/weather?appid=fe26e61e3773caebdade519f9d254704&units=imperial&q=ghatsila,India,82.67,74.0,100.0,11.92,1561577561.0
leh,IN,34.16,77.58,http://api.openweathermap.org/data/2.5/weather?appid=fe26e61e3773caebdade519f9d254704&units=imperial&q=leh,India,28.67,60.0,48.0,3.67,1561577561.0
dalkola,IN,25.88,87.84,http://api.openweathermap.org/data/2.5/weather?appid=fe26e61e3773caebdade519f9d254704&units=imperial&q=dalkola,India,79.97,92.0,100.0,3.83,1561577562.0
mayor pablo lagerenza,PY,-19.93,-60.77,http://api.openweathermap.org/data/2.5/weather?appid=fe26e61e3773caebdade519f9d254704&units=imperial&q=mayor pablo lagerenza,Paraguay,67.55,37.0,18.0,6.11,1561577562.0
lorengau,PG,-2.02,147.27,http://api.openweathermap.org/data/2.5/weather?appid=fe26e61e3773caebdade519f9d254704&units=imperial&q=lorengau,Papua New Guinea,79.79,84.0,97.0,4.94,1561577479.0
namatanai,PG,-3.66,152.44,http://api.openweathermap.org/data/2.5/weather?appid=fe26e61e3773caebdade519f9d254704&units=imperial&q=namatanai,Papua New Guinea,80.15,82.0,87.0,13.09,1561577562.0
kavieng,PG,-2.57,150.8,http://api.openweathermap.org/data/2.5/weather?appid=fe26e61e3773caebdade519f9d254704&units=imperial&q=kavieng,Papua New Guinea,84.29,75.0,79.0,10.49,1561577562.0
port moresby,PG,-9.47,147.16,http://api.openweathermap.org/data/2.5/weather?appid=fe26e61e3773caebdade519f9d254704&units=imperial&q=port moresby,Papua New Guinea,75.2,100.0,75.0,8.05,1561577562.0
kieta,PG,-6.22,155.63,http://api.openweathermap.org/data/2.5/weather?appid=fe26e61e3773caebdade519f9d254704&units=imperial&q=kieta,Papua New Guinea,81.05,76.0,62.0,5.64,1561577562.0
kerema,PG,-7.96,145.78,http://api.openweathermap.org/data/2.5/weather?appid=fe26e61e3773caebdade519f9d254704&units=imperial&q=kerema,Papua New Guinea,78.53,87.0,98.0,16.51,1561577563.0
vanimo,PG,-2.67,141.3,http://api.openweathermap.org/data/2.5/weather?appid=fe26e61e3773caebdade519f9d254704&units=imperial&q=vanimo,Papua New Guinea,80.33,80.0,50.0,9.66,1561577563.0
samarai,PG,-10.62,150.67,http://api.openweathermap.org/data/2.5/weather?appid=fe26e61e3773caebdade519f9d254704&units=imperial&q=samarai,Papua New Guinea,75.11,94.0,69.0,4.07,1561577563.0
faya,TD,18.39,42.45,http://api.openweathermap.org/data/2.5/weather?appid=fe26e61e3773caebdade519f9d254704&units=imperial&q=faya,Chad,80.6,12.0,20.0,4.7,1561577473.0
adre,TD,13.47,22.2,http://api.openweathermap.org/data/2.5/weather?appid=fe26e61e3773caebdade519f9d254704&units=imperial&q=adre,Chad,74.39,67.0,100.0,12.28,1561577563.0
moussoro,TD,13.64,16.49,http://api.openweathermap.org/data/2.5/weather?appid=fe26e61e3773caebdade519f9d254704&units=imperial&q=moussoro,Chad,92.75,37.0,100.0,9.42,1561577563.0
ati,TD,13.21,18.34,http://api.openweathermap.org/data/2.5/weather?appid=fe26e61e3773caebdade519f9d254704&units=imperial&q=ati,Chad,93.29,33.0,100.0,13.87,1561577564.0
am timan,TD,11.04,20.28,http://api.openweathermap.org/data/2.5/weather?appid=fe26e61e3773caebdade519f9d254704&units=imperial&q=am timan,Chad,78.89,70.0,100.0,3.67,1561577564.0
sulangan,PH,11.14,123.72,http://api.openweathermap.org/data/2.5/weather?appid=fe26e61e3773caebdade519f9d254704&units=imperial&q=sulangan,Philippines,82.31,70.0,100.0,3.6,1561577564.0
tagusao,PH,9.19,117.81,http://api.openweathermap.org/data/2.5/weather?appid=fe26e61e3773caebdade519f9d254704&units=imperial&q=tagusao,Philippines,82.49,76.0,97.0,11.43,1561577564.0
cabugao,PH,11.38,122.75,http://api.openweathermap.org/data/2.5/weather?appid=fe26e61e3773caebdade519f9d254704&units=imperial&q=cabugao,Philippines,74.93,91.0,100.0,2.13,1561577565.0
basco,PH,40.33,-91.2,http://api.openweathermap.org/data/2.5/weather?appid=fe26e61e3773caebdade519f9d254704&units=imperial&q=basco,Philippines,90.0,58.0,1.0,8.05,1561577565.0
san policarpo,PH,12.18,125.51,http://api.openweathermap.org/data/2.5/weather?appid=fe26e61e3773caebdade519f9d254704&units=imperial&q=san policarpo,Philippines,79.43,86.0,100.0,5.57,1561577565.0
santa cruz,PH,36.97,-122.03,http://api.openweathermap.org/data/2.5/weather?appid=fe26e61e3773caebdade519f9d254704&units=imperial&q=santa cruz,Philippines,75.99,56.0,1.0,9.17,1561577286.0
tubajon,PH,10.33,125.56,http://api.openweathermap.org/data/2.5/weather?appid=fe26e61e3773caebdade519f9d254704&units=imperial&q=tubajon,Philippines,84.65,73.0,100.0,12.21,1561577565.0
tuburan,PH,10.73,123.82,http://api.openweathermap.org/data/2.5/weather?appid=fe26e61e3773caebdade519f9d254704&units=imperial&q=tuburan,Philippines,82.31,70.0,100.0,3.6,1561577565.0
palauig,PH,15.44,119.9,http://api.openweathermap.org/data/2.5/weather?appid=fe26e61e3773caebdade519f9d254704&units=imperial&q=palauig,Philippines,85.19,72.0,97.0,12.97,1561577566.0
bathsheba,BB,13.22,-59.52,http://api.openweathermap.org/data/2.5/weather?appid=fe26e61e3773caebdade519f9d254704&units=imperial&q=bathsheba,Barbados,86.0,66.0,40.0,20.8,1561577403.0
kristiinankaupunki,FI,,,http://api.openweathermap.org/data/2.5/weather?appid=fe26e61e3773caebdade519f9d254704&units=imperial&q=kristiinankaupunki,Finland,,,,,
villamontes,BO,-21.26,-63.47,http://api.openweathermap.org/data/2.5/weather?appid=fe26e61e3773caebdade519f9d254704&units=imperial&q=villamontes,"Bolivia, Plurinational State of",66.2,45.0,0.0,8.05,1561577566.0
patacamaya,BO,-17.23,-67.92,http://api.openweathermap.org/data/2.5/weather?appid=fe26e61e3773caebdade519f9d254704&units=imperial&q=patacamaya,"Bolivia, Plurinational State of",52.61,14.0,0.0,13.27,1561577566.0
arriaga,MX,16.24,-93.9,http://api.openweathermap.org/data/2.5/weather?appid=fe26e61e3773caebdade519f9d254704&units=imperial&q=arriaga,Mexico,84.11,64.0,74.0,8.84,1561577566.0
guerrero negro,MX,27.97,-114.04,http://api.openweathermap.org/data/2.5/weather?appid=fe26e61e3773caebdade519f9d254704&units=imperial&q=guerrero negro,Mexico,63.77,80.0,100.0,9.98,1561577566.0
cabo san lucas,MX,22.89,-109.91,http://api.openweathermap.org/data/2.5/weather?appid=fe26e61e3773caebdade519f9d254704&units=imperial&q=cabo san lucas,Mexico,98.01,19.0,5.0,9.17,1561577319.0
puerto escondido,MX,15.86,-97.07,http://api.openweathermap.org/data/2.5/weather?appid=fe26e61e3773caebdade519f9d254704&units=imperial&q=puerto escondido,Mexico,89.6,62.0,75.0,13.87,1561577476.0
caborca,MX,30.58,-111.1,http://api.openweathermap.org/data/2.5/weather?appid=fe26e61e3773caebdade519f9d254704&units=imperial&q=caborca,Mexico,95.0,22.0,76.0,3.0,1561577567.0
san patricio,MX,-26.98,-56.83,http://api.openweathermap.org/data/2.5/weather?appid=fe26e61e3773caebdade519f9d254704&units=imperial&q=san patricio,Mexico,49.19,68.0,0.0,3.65,1561577567.0
casas grandes,MX,30.15,-110.24,http://api.openweathermap.org/data/2.5/weather?appid=fe26e61e3773caebdade519f9d254704&units=imperial&q=casas grandes,Mexico,92.21,16.0,100.0,12.3,1561577567.0
tekax,MX,,,http://api.openweathermap.org/data/2.5/weather?appid=fe26e61e3773caebdade519f9d254704&units=imperial&q=tekax,Mexico,,,,,
reynosa,MX,26.07,-98.3,http://api.openweathermap.org/data/2.5/weather?appid=fe26e61e3773caebdade519f9d254704&units=imperial&q=reynosa,Mexico,95.0,56.0,40.0,10.29,1561577376.0
aguililla,MX,18.74,-102.79,http://api.openweathermap.org/data/2.5/weather?appid=fe26e61e3773caebdade519f9d254704&units=imperial&q=aguililla,Mexico,83.21,60.0,53.0,2.89,1561577568.0
coahuayana,MX,18.62,-100.35,http://api.openweathermap.org/data/2.5/weather?appid=fe26e61e3773caebdade519f9d254704&units=imperial&q=coahuayana,Mexico,83.75,64.0,96.0,2.24,1561577568.0
puerto madero,MX,-34.61,-58.36,http://api.openweathermap.org/data/2.5/weather?appid=fe26e61e3773caebdade519f9d254704&units=imperial&q=puerto madero,Mexico,57.99,49.0,0.0,11.41,1561577412.0
isla mujeres,MX,21.23,-86.73,http://api.openweathermap.org/data/2.5/weather?appid=fe26e61e3773caebdade519f9d254704&units=imperial&q=isla mujeres,Mexico,89.6,62.0,40.0,9.17,1561577568.0
illoqqortoormiut,GL,,,http://api.openweathermap.org/data/2.5/weather?appid=fe26e61e3773caebdade519f9d254704&units=imperial&q=illoqqortoormiut,Greenland,,,,,
upernavik,GL,72.79,-56.15,http://api.openweathermap.org/data/2.5/weather?appid=fe26e61e3773caebdade519f9d254704&units=imperial&q=upernavik,Greenland,34.25,87.0,0.0,11.97,1561577568.0
qaanaaq,GL,77.48,-69.36,http://api.openweathermap.org/data/2.5/weather?appid=fe26e61e3773caebdade519f9d254704&units=imperial&q=qaanaaq,Greenland,36.77,67.0,26.0,3.85,1561577569.0
paamiut,GL,61.99,-49.67,http://api.openweathermap.org/data/2.5/weather?appid=fe26e61e3773caebdade519f9d254704&units=imperial&q=paamiut,Greenland,40.37,100.0,100.0,5.77,1561577569.0
qasigiannguit,GL,68.82,-51.19,http://api.openweathermap.org/data/2.5/weather?appid=fe26e61e3773caebdade519f9d254704&units=imperial&q=qasigiannguit,Greenland,44.6,81.0,40.0,9.17,1561577569.0
maniitsoq,GL,65.42,-52.9,http://api.openweathermap.org/data/2.5/weather?appid=fe26e61e3773caebdade519f9d254704&units=imperial&q=maniitsoq,Greenland,50.27,74.0,93.0,5.28,1561577467.0
narsaq,GL,60.91,-46.05,http://api.openweathermap.org/data/2.5/weather?appid=fe26e61e3773caebdade519f9d254704&units=imperial&q=narsaq,Greenland,51.8,87.0,75.0,4.7,1561577569.0
sisimiut,GL,66.94,-53.67,http://api.openweathermap.org/data/2.5/weather?appid=fe26e61e3773caebdade519f9d254704&units=imperial&q=sisimiut,Greenland,38.03,95.0,58.0,30.94,1561577569.0
tasiilaq,GL,65.61,-37.64,http://api.openweathermap.org/data/2.5/weather?appid=fe26e61e3773caebdade519f9d254704&units=imperial&q=tasiilaq,Greenland,41.09,83.0,100.0,1.28,1561577570.0
qaqortoq,GL,60.72,-46.03,http://api.openweathermap.org/data/2.5/weather?appid=fe26e61e3773caebdade519f9d254704&units=imperial&q=qaqortoq,Greenland,51.8,87.0,75.0,4.7,1561577471.0
samusu,WS,,,http://api.openweathermap.org/data/2.5/weather?appid=fe26e61e3773caebdade519f9d254704&units=imperial&q=samusu,Samoa,,,,,
saleaula,WS,,,http://api.openweathermap.org/data/2.5/weather?appid=fe26e61e3773caebdade519f9d254704&units=imperial&q=saleaula,Samoa,,,,,
falealupo,WS,,,http://api.openweathermap.org/data/2.5/weather?appid=fe26e61e3773caebdade519f9d254704&units=imperial&q=falealupo,Samoa,,,,,
sorvag,FO,,,http://api.openweathermap.org/data/2.5/weather?appid=fe26e61e3773caebdade519f9d254704&units=imperial&q=sorvag,Faroe Islands,,,,,
klaksvik,FO,62.23,-6.59,http://api.openweathermap.org/data/2.5/weather?appid=fe26e61e3773caebdade519f9d254704&units=imperial&q=klaksvik,Faroe Islands,51.8,87.0,20.0,8.05,1561577570.0
vestmanna,FO,62.16,-7.17,http://api.openweathermap.org/data/2.5/weather?appid=fe26e61e3773caebdade519f9d254704&units=imperial&q=vestmanna,Faroe Islands,51.8,87.0,20.0,8.05,1561577570.0
fereydun kenar,IR,36.69,52.52,http://api.openweathermap.org/data/2.5/weather?appid=fe26e61e3773caebdade519f9d254704&units=imperial&q=fereydun kenar,"Iran, Islamic Republic of",82.4,78.0,0.0,4.7,1561577570.0
ashtian,IR,34.52,50.0,http://api.openweathermap.org/data/2.5/weather?appid=fe26e61e3773caebdade519f9d254704&units=imperial&q=ashtian,"Iran, Islamic Republic of",77.99,16.0,0.0,12.03,1561577571.0
taft,IR,11.9,125.42,http://api.openweathermap.org/data/2.5/weather?appid=fe26e61e3773caebdade519f9d254704&units=imperial&q=taft,"Iran, Islamic Republic of",74.39,96.0,100.0,1.23,1561577571.0
westport,IE,41.14,-73.36,http://api.openweathermap.org/data/2.5/weather?appid=fe26e61e3773caebdade519f9d254704&units=imperial&q=westport,Ireland,89.01,37.0,1.0,5.82,1561577427.0
dingle,IE,11.0,122.67,http://api.openweathermap.org/data/2.5/weather?appid=fe26e61e3773caebdade519f9d254704&units=imperial&q=dingle,Ireland,75.47,88.0,100.0,5.23,1561577571.0
ginda,ER,30.69,78.49,http://api.openweathermap.org/data/2.5/weather?appid=fe26e61e3773caebdade519f9d254704&units=imperial&q=ginda,Eritrea,58.37,62.0,0.0,5.64,1561577571.0
gunjur,GM,13.18,-16.76,http://api.openweathermap.org/data/2.5/weather?appid=fe26e61e3773caebdade519f9d254704&units=imperial&q=gunjur,Gambia,84.2,66.0,20.0,6.93,1561577572.0
mahebourg,MU,-20.41,57.7,http://api.openweathermap.org/data/2.5/weather?appid=fe26e61e3773caebdade519f9d254704&units=imperial&q=mahebourg,Mauritius,75.2,88.0,75.0,19.46,1561577572.0
bambous virieux,MU,-20.34,57.76,http://api.openweathermap.org/data/2.5/weather?appid=fe26e61e3773caebdade519f9d254704&units=imperial&q=bambous virieux,Mauritius,75.2,88.0,75.0,19.46,1561577434.0
grand river south east,MU,,,http://api.openweathermap.org/data/2.5/weather?appid=fe26e61e3773caebdade519f9d254704&units=imperial&q=grand river south east,Mauritius,,,,,
souillac,MU,45.6,-0.6,http://api.openweathermap.org/data/2.5/weather?appid=fe26e61e3773caebdade519f9d254704&units=imperial&q=souillac,Mauritius,93.99,46.0,0.0,4.7,1561577572.0
hobyo,SO,5.35,48.53,http://api.openweathermap.org/data/2.5/weather?appid=fe26e61e3773caebdade519f9d254704&units=imperial&q=hobyo,Somalia,78.53,66.0,41.0,27.51,1561577473.0
eyl,SO,7.98,49.82,http://api.openweathermap.org/data/2.5/weather?appid=fe26e61e3773caebdade519f9d254704&units=imperial&q=eyl,Somalia,78.35,66.0,55.0,27.02,1561577572.0
puerto ayora,EC,-0.74,-90.35,http://api.openweathermap.org/data/2.5/weather?appid=fe26e61e3773caebdade519f9d254704&units=imperial&q=puerto ayora,Ecuador,84.2,54.0,20.0,21.92,1561577572.0
muisne,EC,0.61,-80.02,http://api.openweathermap.org/data/2.5/weather?appid=fe26e61e3773caebdade519f9d254704&units=imperial&q=muisne,Ecuador,84.2,79.0,75.0,8.05,1561577573.0
manta,EC,45.1,24.1,http://api.openweathermap.org/data/2.5/weather?appid=fe26e61e3773caebdade519f9d254704&units=imperial&q=manta,Ecuador,67.01,76.0,0.0,2.33,1561577573.0
san cristobal,EC,14.68,-86.92,http://api.openweathermap.org/data/2.5/weather?appid=fe26e61e3773caebdade519f9d254704&units=imperial&q=san cristobal,Ecuador,78.35,69.0,80.0,9.4,1561577573.0
jamestown,SH,-33.21,138.6,http://api.openweathermap.org/data/2.5/weather?appid=fe26e61e3773caebdade519f9d254704&units=imperial&q=jamestown,"Saint Helena, Ascension and Tristan da Cunha",52.07,66.0,0.0,12.41,1561577411.0
georgetown,SH,6.8,-58.16,http://api.openweathermap.org/data/2.5/weather?appid=fe26e61e3773caebdade519f9d254704&units=imperial&q=georgetown,"Saint Helena, Ascension and Tristan da Cunha",89.6,70.0,40.0,13.87,1561577574.0
luanda,AO,-8.83,13.24,http://api.openweathermap.org/data/2.5/weather?appid=fe26e61e3773caebdade519f9d254704&units=imperial&q=luanda,Angola,73.4,83.0,40.0,9.17,1561577574.0
namibe,AO,-15.19,12.15,http://api.openweathermap.org/data/2.5/weather?appid=fe26e61e3773caebdade519f9d254704&units=imperial&q=namibe,Angola,66.65,79.0,100.0,9.64,1561577529.0
menongue,AO,-14.66,17.68,http://api.openweathermap.org/data/2.5/weather?appid=fe26e61e3773caebdade519f9d254704&units=imperial&q=menongue,Angola,55.31,42.0,0.0,2.55,1561577575.0
omboue,GA,-1.57,9.26,http://api.openweathermap.org/data/2.5/weather?appid=fe26e61e3773caebdade519f9d254704&units=imperial&q=omboue,Gabon,75.47,78.0,11.0,11.54,1561577575.0
gamba,GA,28.28,88.52,http://api.openweathermap.org/data/2.5/weather?appid=fe26e61e3773caebdade519f9d254704&units=imperial&q=gamba,Gabon,41.27,76.0,59.0,0.49,1561577575.0
port-gentil,GA,-0.72,8.78,http://api.openweathermap.org/data/2.5/weather?appid=fe26e61e3773caebdade519f9d254704&units=imperial&q=port-gentil,Gabon,77.0,78.0,20.0,6.93,1561577532.0
waddan,LY,29.16,16.14,http://api.openweathermap.org/data/2.5/weather?appid=fe26e61e3773caebdade519f9d254704&units=imperial&q=waddan,Libya,83.57,39.0,0.0,9.91,1561577575.0
gat,LY,14.69,-16.54,http://api.openweathermap.org/data/2.5/weather?appid=fe26e61e3773caebdade519f9d254704&units=imperial&q=gat,Libya,82.4,61.0,0.0,8.05,1561577575.0
hithadhoo,MV,-0.6,73.08,http://api.openweathermap.org/data/2.5/weather?appid=fe26e61e3773caebdade519f9d254704&units=imperial&q=hithadhoo,Maldives,84.11,74.0,61.0,10.33,1561577576.0
kapit,MY,2.02,112.94,http://api.openweathermap.org/data/2.5/weather?appid=fe26e61e3773caebdade519f9d254704&units=imperial&q=kapit,Malaysia,73.85,98.0,98.0,1.79,1561577576.0
banting,MY,2.82,101.5,http://api.openweathermap.org/data/2.5/weather?appid=fe26e61e3773caebdade519f9d254704&units=imperial&q=banting,Malaysia,78.8,83.0,75.0,3.36,1561577576.0
ornskoldsvik,SE,63.29,18.72,http://api.openweathermap.org/data/2.5/weather?appid=fe26e61e3773caebdade519f9d254704&units=imperial&q=ornskoldsvik,Sweden,62.6,77.0,0.0,5.82,1561577576.0
kiruna,SE,67.86,20.23,http://api.openweathermap.org/data/2.5/weather?appid=fe26e61e3773caebdade519f9d254704&units=imperial&q=kiruna,Sweden,51.8,57.0,100.0,8.05,1561577576.0
kaffrine,SN,14.1,-15.55,http://api.openweathermap.org/data/2.5/weather?appid=fe26e61e3773caebdade519f9d254704&units=imperial&q=kaffrine,Senegal,91.4,52.0,0.0,11.41,1561577380.0
pavilosta,LV,56.89,21.19,http://api.openweathermap.org/data/2.5/weather?appid=fe26e61e3773caebdade519f9d254704&units=imperial&q=pavilosta,Latvia,69.8,83.0,54.0,2.66,1561577577.0
ventspils,LV,57.39,21.56,http://api.openweathermap.org/data/2.5/weather?appid=fe26e61e3773caebdade519f9d254704&units=imperial&q=ventspils,Latvia,62.6,93.0,40.0,4.7,1561577577.0
slavonski brod,HR,45.17,18.01,http://api.openweathermap.org/data/2.5/weather?appid=fe26e61e3773caebdade519f9d254704&units=imperial&q=slavonski brod,Croatia,77.0,78.0,0.0,2.24,1561577577.0
senj,HR,45.35,13.91,http://api.openweathermap.org/data/2.5/weather?appid=fe26e61e3773caebdade519f9d254704&units=imperial&q=senj,Croatia,87.8,65.0,0.0,1.12,1561577577.0
ponta do sol,CV,-20.63,-46.0,http://api.openweathermap.org/data/2.5/weather?appid=fe26e61e3773caebdade519f9d254704&units=imperial&q=ponta do sol,Cape Verde,70.07,54.0,82.0,4.99,1561577578.0
sao filipe,CV,14.9,-24.5,http://api.openweathermap.org/data/2.5/weather?appid=fe26e61e3773caebdade519f9d254704&units=imperial&q=sao filipe,Cape Verde,74.57,84.0,0.0,24.72,1561577578.0
sal rei,CV,16.18,-22.92,http://api.openweathermap.org/data/2.5/weather?appid=fe26e61e3773caebdade519f9d254704&units=imperial&q=sal rei,Cape Verde,78.8,78.0,75.0,19.46,1561577578.0
luganville,VU,-15.51,167.18,http://api.openweathermap.org/data/2.5/weather?appid=fe26e61e3773caebdade519f9d254704&units=imperial&q=luganville,Vanuatu,77.0,94.0,90.0,11.41,1561577578.0
isangel,VU,-19.55,169.27,http://api.openweathermap.org/data/2.5/weather?appid=fe26e61e3773caebdade519f9d254704&units=imperial&q=isangel,Vanuatu,71.6,94.0,75.0,10.63,1561577578.0
vila,VU,45.18,8.4,http://api.openweathermap.org/data/2.5/weather?appid=fe26e61e3773caebdade519f9d254704&units=imperial&q=vila,Vanuatu,93.0,49.0,0.0,5.82,1561577579.0
mitsamiouli,KM,-11.38,43.28,http://api.openweathermap.org/data/2.5/weather?appid=fe26e61e3773caebdade519f9d254704&units=imperial&q=mitsamiouli,Comoros,77.0,73.0,20.0,14.99,1561577579.0
moroni,KM,35.09,24.92,http://api.openweathermap.org/data/2.5/weather?appid=fe26e61e3773caebdade519f9d254704&units=imperial&q=moroni,Comoros,80.01,74.0,20.0,12.75,1561577579.0
yenagoa,NG,4.92,6.26,http://api.openweathermap.org/data/2.5/weather?appid=fe26e61e3773caebdade519f9d254704&units=imperial&q=yenagoa,Nigeria,73.13,96.0,100.0,6.33,1561577477.0
pathein,MM,16.78,94.73,http://api.openweathermap.org/data/2.5/weather?appid=fe26e61e3773caebdade519f9d254704&units=imperial&q=pathein,Myanmar,79.43,87.0,100.0,7.09,1561577579.0
mergui,MM,,,http://api.openweathermap.org/data/2.5/weather?appid=fe26e61e3773caebdade519f9d254704&units=imperial&q=mergui,Myanmar,,,,,
dawei,MM,14.07,98.19,http://api.openweathermap.org/data/2.5/weather?appid=fe26e61e3773caebdade519f9d254704&units=imperial&q=dawei,Myanmar,83.57,78.0,100.0,20.24,1561577579.0
ochamchira,GE,42.71,41.47,http://api.openweathermap.org/data/2.5/weather?appid=fe26e61e3773caebdade519f9d254704&units=imperial&q=ochamchira,Georgia,72.77,92.0,8.0,3.74,1561577580.0
plouzane,FR,48.38,-4.62,http://api.openweathermap.org/data/2.5/weather?appid=fe26e61e3773caebdade519f9d254704&units=imperial&q=plouzane,France,72.0,77.0,0.0,13.87,1561577583.0
sens,FR,48.2,3.28,http://api.openweathermap.org/data/2.5/weather?appid=fe26e61e3773caebdade519f9d254704&units=imperial&q=sens,France,93.2,46.0,0.0,4.7,1561577583.0
saint george,BM,39.45,22.34,http://api.openweathermap.org/data/2.5/weather?appid=fe26e61e3773caebdade519f9d254704&units=imperial&q=saint george,Bermuda,84.0,57.0,20.0,4.7,1561577402.0
hamilton,BM,43.26,-79.87,http://api.openweathermap.org/data/2.5/weather?appid=fe26e61e3773caebdade519f9d254704&units=imperial&q=hamilton,Bermuda,84.99,45.0,75.0,18.34,1561577558.0
sarkand,KZ,45.41,79.91,http://api.openweathermap.org/data/2.5/weather?appid=fe26e61e3773caebdade519f9d254704&units=imperial&q=sarkand,Kazakhstan,64.67,49.0,0.0,3.62,1561577583.0
inderborskiy,KZ,,,http://api.openweathermap.org/data/2.5/weather?appid=fe26e61e3773caebdade519f9d254704&units=imperial&q=inderborskiy,Kazakhstan,,,,,
ushtobe,KZ,45.25,77.98,http://api.openweathermap.org/data/2.5/weather?appid=fe26e61e3773caebdade519f9d254704&units=imperial&q=ushtobe,Kazakhstan,73.31,23.0,4.0,7.4,1561577584.0
boralday,KZ,43.36,76.86,http://api.openweathermap.org/data/2.5/weather?appid=fe26e61e3773caebdade519f9d254704&units=imperial&q=boralday,Kazakhstan,64.4,59.0,20.0,2.24,1561577499.0
ekibastuz,KZ,51.72,75.32,http://api.openweathermap.org/data/2.5/weather?appid=fe26e61e3773caebdade519f9d254704&units=imperial&q=ekibastuz,Kazakhstan,61.97,77.0,41.0,8.05,1561577585.0
belousovka,KZ,50.13,82.52,http://api.openweathermap.org/data/2.5/weather?appid=fe26e61e3773caebdade519f9d254704&units=imperial&q=belousovka,Kazakhstan,50.0,93.0,0.0,4.47,1561577585.0
fort-shevchenko,KZ,44.51,50.26,http://api.openweathermap.org/data/2.5/weather?appid=fe26e61e3773caebdade519f9d254704&units=imperial&q=fort-shevchenko,Kazakhstan,79.97,74.0,60.0,11.72,1561577585.0
karacakoy,TR,41.4,28.38,http://api.openweathermap.org/data/2.5/weather?appid=fe26e61e3773caebdade519f9d254704&units=imperial&q=karacakoy,Turkey,81.0,83.0,40.0,21.92,1561577585.0
kumluca,TR,36.37,30.29,http://api.openweathermap.org/data/2.5/weather?appid=fe26e61e3773caebdade519f9d254704&units=imperial&q=kumluca,Turkey,64.67,56.0,0.0,2.66,1561577585.0
kulu,TR,3.47,23.69,http://api.openweathermap.org/data/2.5/weather?appid=fe26e61e3773caebdade519f9d254704&units=imperial&q=kulu,Turkey,69.71,97.0,100.0,0.29,1561577586.0
hendek,TR,40.8,30.75,http://api.openweathermap.org/data/2.5/weather?appid=fe26e61e3773caebdade519f9d254704&units=imperial&q=hendek,Turkey,77.0,78.0,40.0,4.7,1561577358.0
butzow,DE,52.49,12.6,http://api.openweathermap.org/data/2.5/weather?appid=fe26e61e3773caebdade519f9d254704&units=imperial&q=butzow,Germany,88.0,40.0,0.0,10.29,1561577586.0
noumea,NC,-22.28,166.46,http://api.openweathermap.org/data/2.5/weather?appid=fe26e61e3773caebdade519f9d254704&units=imperial&q=noumea,New Caledonia,66.2,88.0,0.0,23.2,1561577586.0
poya,NC,-21.35,165.16,http://api.openweathermap.org/data/2.5/weather?appid=fe26e61e3773caebdade519f9d254704&units=imperial&q=poya,New Caledonia,71.33,86.0,99.0,15.35,1561577586.0
bosobolo,CD,4.19,19.88,http://api.openweathermap.org/data/2.5/weather?appid=fe26e61e3773caebdade519f9d254704&units=imperial&q=bosobolo,"Congo, the Democratic Republic of the",71.15,93.0,8.0,0.63,1561577586.0
kisangani,CD,0.52,25.21,http://api.openweathermap.org/data/2.5/weather?appid=fe26e61e3773caebdade519f9d254704&units=imperial&q=kisangani,"Congo, the Democratic Republic of the",70.97,94.0,48.0,1.25,1561577586.0
wamba,CD,2.14,27.99,http://api.openweathermap.org/data/2.5/weather?appid=fe26e61e3773caebdade519f9d254704&units=imperial&q=wamba,"Congo, the Democratic Republic of the",67.01,98.0,100.0,1.34,1561577590.0
mbanza-ngungu,CD,-5.25,14.87,http://api.openweathermap.org/data/2.5/weather?appid=fe26e61e3773caebdade519f9d254704&units=imperial&q=mbanza-ngungu,"Congo, the Democratic Republic of the",69.53,69.0,37.0,6.46,1561577590.0
goma,CD,-1.67,29.23,http://api.openweathermap.org/data/2.5/weather?appid=fe26e61e3773caebdade519f9d254704&units=imperial&q=goma,"Congo, the Democratic Republic of the",56.39,96.0,100.0,1.16,1561577590.0
boende,CD,-0.28,20.88,http://api.openweathermap.org/data/2.5/weather?appid=fe26e61e3773caebdade519f9d254704&units=imperial&q=boende,"Congo, the Democratic Republic of the",74.03,91.0,100.0,2.66,1561577590.0
chuy,UY,-33.69,-53.46,http://api.openweathermap.org/data/2.5/weather?appid=fe26e61e3773caebdade519f9d254704&units=imperial&q=chuy,Uruguay,48.47,69.0,72.0,8.61,1561577449.0
goderich,SL,43.74,-81.71,http://api.openweathermap.org/data/2.5/weather?appid=fe26e61e3773caebdade519f9d254704&units=imperial&q=goderich,Sierra Leone,79.0,81.0,1.0,12.08,1561577590.0
lungi,SL,9.22,-12.68,http://api.openweathermap.org/data/2.5/weather?appid=fe26e61e3773caebdade519f9d254704&units=imperial&q=lungi,Sierra Leone,76.73,93.0,100.0,3.78,1561577591.0
hofn,IS,64.25,-15.21,http://api.openweathermap.org/data/2.5/weather?appid=fe26e61e3773caebdade519f9d254704&units=imperial&q=hofn,Iceland,62.6,63.0,20.0,6.93,1561577591.0
grindavik,IS,63.84,-22.43,http://api.openweathermap.org/data/2.5/weather?appid=fe26e61e3773caebdade519f9d254704&units=imperial&q=grindavik,Iceland,51.8,100.0,90.0,16.11,1561577504.0
vestmannaeyjar,IS,63.44,-20.27,http://api.openweathermap.org/data/2.5/weather?appid=fe26e61e3773caebdade519f9d254704&units=imperial&q=vestmannaeyjar,Iceland,52.43,96.0,100.0,13.09,1561577591.0
bolungarvik,IS,,,http://api.openweathermap.org/data/2.5/weather?appid=fe26e61e3773caebdade519f9d254704&units=imperial&q=bolungarvik,Iceland,,,,,
dalbandin,PK,28.9,64.41,http://api.openweathermap.org/data/2.5/weather?appid=fe26e61e3773caebdade519f9d254704&units=imperial&q=dalbandin,Pakistan,83.57,7.0,0.0,14.45,1561577591.0
harnoli,PK,32.28,71.55,http://api.openweathermap.org/data/2.5/weather?appid=fe26e61e3773caebdade519f9d254704&units=imperial&q=harnoli,Pakistan,98.33,25.0,2.0,7.54,1561577592.0
mingaora,PK,34.78,72.36,http://api.openweathermap.org/data/2.5/weather?appid=fe26e61e3773caebdade519f9d254704&units=imperial&q=mingaora,Pakistan,66.11,40.0,0.0,7.94,1561577592.0
sangmelima,CM,2.93,11.98,http://api.openweathermap.org/data/2.5/weather?appid=fe26e61e3773caebdade519f9d254704&units=imperial&q=sangmelima,Cameroon,67.01,98.0,93.0,2.95,1561577592.0
poli,CM,8.48,13.24,http://api.openweathermap.org/data/2.5/weather?appid=fe26e61e3773caebdade519f9d254704&units=imperial&q=poli,Cameroon,71.33,87.0,53.0,2.73,1561577592.0
wum,CM,6.39,10.08,http://api.openweathermap.org/data/2.5/weather?appid=fe26e61e3773caebdade519f9d254704&units=imperial&q=wum,Cameroon,65.21,95.0,93.0,1.99,1561577592.0
ginir,ET,7.14,40.71,http://api.openweathermap.org/data/2.5/weather?appid=fe26e61e3773caebdade519f9d254704&units=imperial&q=ginir,Ethiopia,58.19,93.0,3.0,4.12,1561577592.0
tyup,KG,42.73,78.36,http://api.openweathermap.org/data/2.5/weather?appid=fe26e61e3773caebdade519f9d254704&units=imperial&q=tyup,Kyrgyzstan,38.03,78.0,0.0,5.44,1561577593.0
matara,LK,-3.48,29.48,http://api.openweathermap.org/data/2.5/weather?appid=fe26e61e3773caebdade519f9d254704&units=imperial&q=matara,Sri Lanka,51.71,88.0,64.0,0.38,1561577593.0
point pedro,LK,9.82,80.23,http://api.openweathermap.org/data/2.5/weather?appid=fe26e61e3773caebdade519f9d254704&units=imperial&q=point pedro,Sri Lanka,83.93,82.0,45.0,27.18,1561577593.0
hambantota,LK,6.12,81.12,http://api.openweathermap.org/data/2.5/weather?appid=fe26e61e3773caebdade519f9d254704&units=imperial&q=hambantota,Sri Lanka,80.6,100.0,20.0,4.7,1561577594.0
buraydah,SA,26.33,43.97,http://api.openweathermap.org/data/2.5/weather?appid=fe26e61e3773caebdade519f9d254704&units=imperial&q=buraydah,Saudi Arabia,98.6,17.0,0.0,3.29,1561577594.0
riyadh,SA,24.63,46.72,http://api.openweathermap.org/data/2.5/weather?appid=fe26e61e3773caebdade519f9d254704&units=imperial&q=riyadh,Saudi Arabia,95.0,8.0,0.0,4.7,1561577408.0
mecca,SA,21.43,39.83,http://api.openweathermap.org/data/2.5/weather?appid=fe26e61e3773caebdade519f9d254704&units=imperial&q=mecca,Saudi Arabia,88.43,40.0,0.0,6.44,1561577407.0
saint-pierre,PM,48.95,4.24,http://api.openweathermap.org/data/2.5/weather?appid=fe26e61e3773caebdade519f9d254704&units=imperial&q=saint-pierre,Saint Pierre and Miquelon,93.2,62.0,0.0,8.05,1561577594.0
hovd,MN,63.83,10.7,http://api.openweathermap.org/data/2.5/weather?appid=fe26e61e3773caebdade519f9d254704&units=imperial&q=hovd,Mongolia,53.6,71.0,75.0,14.99,1561577595.0
bulgan,MN,48.81,103.53,http://api.openweathermap.org/data/2.5/weather?appid=fe26e61e3773caebdade519f9d254704&units=imperial&q=bulgan,Mongolia,42.53,87.0,24.0,5.03,1561577595.0
baruun-urt,MN,46.68,113.28,http://api.openweathermap.org/data/2.5/weather?appid=fe26e61e3773caebdade519f9d254704&units=imperial&q=baruun-urt,Mongolia,61.25,71.0,29.0,13.76,1561577595.0
mwingi,KE,-0.93,38.07,http://api.openweathermap.org/data/2.5/weather?appid=fe26e61e3773caebdade519f9d254704&units=imperial&q=mwingi,Kenya,65.57,80.0,17.0,10.38,1561577595.0
tonj,SD,,,http://api.openweathermap.org/data/2.5/weather?appid=fe26e61e3773caebdade519f9d254704&units=imperial&q=tonj,Sudan,,,,,
kutum,SD,14.2,24.66,http://api.openweathermap.org/data/2.5/weather?appid=fe26e61e3773caebdade519f9d254704&units=imperial&q=kutum,Sudan,81.77,36.0,60.0,5.3,1561577595.0
umm kaddadah,SD,13.6,26.69,http://api.openweathermap.org/data/2.5/weather?appid=fe26e61e3773caebdade519f9d254704&units=imperial&q=umm kaddadah,Sudan,89.33,33.0,24.0,13.27,1561577596.0
navabad,TJ,,,http://api.openweathermap.org/data/2.5/weather?appid=fe26e61e3773caebdade519f9d254704&units=imperial&q=navabad,Tajikistan,,,,,
bilma,NE,18.69,12.92,http://api.openweathermap.org/data/2.5/weather?appid=fe26e61e3773caebdade519f9d254704&units=imperial&q=bilma,Niger,92.39,18.0,49.0,4.99,1561577596.0
arlit,NE,18.74,7.39,http://api.openweathermap.org/data/2.5/weather?appid=fe26e61e3773caebdade519f9d254704&units=imperial&q=arlit,Niger,96.17,21.0,55.0,17.56,1561577596.0
gizycko,PL,54.04,21.76,http://api.openweathermap.org/data/2.5/weather?appid=fe26e61e3773caebdade519f9d254704&units=imperial&q=gizycko,Poland,70.43,92.0,9.0,9.33,1561577596.0
kivsharivka,UA,49.63,37.68,http://api.openweathermap.org/data/2.5/weather?appid=fe26e61e3773caebdade519f9d254704&units=imperial&q=kivsharivka,Ukraine,59.99,77.0,1.0,1.7,1561577596.0
zaozerne,UA,51.37,23.94,http://api.openweathermap.org/data/2.5/weather?appid=fe26e61e3773caebdade519f9d254704&units=imperial&q=zaozerne,Ukraine,75.83,70.0,14.0,9.15,1561577597.0
linden,GY,6.01,-58.31,http://api.openweathermap.org/data/2.5/weather?appid=fe26e61e3773caebdade519f9d254704&units=imperial&q=linden,Guyana,89.6,55.0,75.0,18.34,1561577597.0
lethem,GY,3.38,-59.8,http://api.openweathermap.org/data/2.5/weather?appid=fe26e61e3773caebdade519f9d254704&units=imperial&q=lethem,Guyana,86.63,56.0,3.0,15.39,1561577597.0
