City,Country Code,Latitude,Longitude,URL,Name,Max Temperature,Humidity,Cloud Cover,Wind Speed,Date
yellowknife,CA,62.45,-114.38,http://api.openweathermap.org/data/2.5/weather?appid=fe26e61e3773caebdade519f9d254704&units=imperial&q=yellowknife,Canada,66.2,42.0,20.0,6.93,1561520023.0
attawapiskat,CA,,,http://api.openweathermap.org/data/2.5/weather?appid=fe26e61e3773caebdade519f9d254704&units=imperial&q=attawapiskat,Canada,,,,,
torbay,CA,47.66,-52.73,http://api.openweathermap.org/data/2.5/weather?appid=fe26e61e3773caebdade519f9d254704&units=imperial&q=torbay,Canada,46.99,87.0,5.0,9.17,1561519850.0
the pas,CA,53.82,-101.24,http://api.openweathermap.org/data/2.5/weather?appid=fe26e61e3773caebdade519f9d254704&units=imperial&q=the pas,Canada,62.6,72.0,20.0,5.82,1561519851.0
iqaluit,CA,63.75,-68.52,http://api.openweathermap.org/data/2.5/weather?appid=fe26e61e3773caebdade519f9d254704&units=imperial&q=iqaluit,Canada,46.4,65.0,20.0,4.7,1561520024.0
tuktoyaktuk,CA,69.44,-133.03,http://api.openweathermap.org/data/2.5/weather?appid=fe26e61e3773caebdade519f9d254704&units=imperial&q=tuktoyaktuk,Canada,39.2,84.0,90.0,19.46,1561520024.0
hay river,CA,60.82,-115.79,http://api.openweathermap.org/data/2.5/weather?appid=fe26e61e3773caebdade519f9d254704&units=imperial&q=hay river,Canada,60.8,55.0,20.0,6.93,1561520027.0
chapais,CA,49.78,-74.86,http://api.openweathermap.org/data/2.5/weather?appid=fe26e61e3773caebdade519f9d254704&units=imperial&q=chapais,Canada,59.0,93.0,90.0,11.41,1561520027.0
port hardy,CA,50.7,-127.42,http://api.openweathermap.org/data/2.5/weather?appid=fe26e61e3773caebdade519f9d254704&units=imperial&q=port hardy,Canada,60.8,59.0,75.0,12.75,1561519994.0
norman wells,CA,65.28,-126.83,http://api.openweathermap.org/data/2.5/weather?appid=fe26e61e3773caebdade519f9d254704&units=imperial&q=norman wells,Canada,48.2,87.0,90.0,10.29,1561520027.0
thompson,CA,55.74,-97.86,http://api.openweathermap.org/data/2.5/weather?appid=fe26e61e3773caebdade519f9d254704&units=imperial&q=thompson,Canada,57.2,87.0,90.0,6.93,1561520028.0
haines junction,CA,60.75,-137.51,http://api.openweathermap.org/data/2.5/weather?appid=fe26e61e3773caebdade519f9d254704&units=imperial&q=haines junction,Canada,64.16,50.0,45.0,4.45,1561520028.0
fort nelson,CA,58.81,-122.69,http://api.openweathermap.org/data/2.5/weather?appid=fe26e61e3773caebdade519f9d254704&units=imperial&q=fort nelson,Canada,73.4,46.0,75.0,4.7,1561520028.0
pangnirtung,CA,66.15,-65.72,http://api.openweathermap.org/data/2.5/weather?appid=fe26e61e3773caebdade519f9d254704&units=imperial&q=pangnirtung,Canada,51.02,52.0,0.0,2.62,1561520028.0
clyde river,CA,70.47,-68.59,http://api.openweathermap.org/data/2.5/weather?appid=fe26e61e3773caebdade519f9d254704&units=imperial&q=clyde river,Canada,30.2,100.0,75.0,10.29,1561520028.0
rimbey,CA,52.64,-114.24,http://api.openweathermap.org/data/2.5/weather?appid=fe26e61e3773caebdade519f9d254704&units=imperial&q=rimbey,Canada,53.6,81.0,75.0,4.7,1561520028.0
sept-iles,CA,50.2,-66.38,http://api.openweathermap.org/data/2.5/weather?appid=fe26e61e3773caebdade519f9d254704&units=imperial&q=sept-iles,Canada,53.6,71.0,40.0,4.7,1561519833.0
kenora,CA,49.76,-94.48,http://api.openweathermap.org/data/2.5/weather?appid=fe26e61e3773caebdade519f9d254704&units=imperial&q=kenora,Canada,66.2,82.0,75.0,4.7,1561520029.0
assiniboia,CA,49.63,-105.99,http://api.openweathermap.org/data/2.5/weather?appid=fe26e61e3773caebdade519f9d254704&units=imperial&q=assiniboia,Canada,61.1,68.0,48.0,6.2,1561520029.0
humboldt,CA,52.21,-105.12,http://api.openweathermap.org/data/2.5/weather?appid=fe26e61e3773caebdade519f9d254704&units=imperial&q=humboldt,Canada,57.5,85.0,69.0,4.27,1561520029.0
thessalon,CA,46.26,-83.55,http://api.openweathermap.org/data/2.5/weather?appid=fe26e61e3773caebdade519f9d254704&units=imperial&q=thessalon,Canada,64.4,93.0,90.0,5.82,1561520029.0
la ronge,CA,55.1,-105.3,http://api.openweathermap.org/data/2.5/weather?appid=fe26e61e3773caebdade519f9d254704&units=imperial&q=la ronge,Canada,57.2,76.0,75.0,2.24,1561520030.0
alexandria,CA,31.31,-92.44,http://api.openweathermap.org/data/2.5/weather?appid=fe26e61e3773caebdade519f9d254704&units=imperial&q=alexandria,Canada,73.99,94.0,1.0,8.32,1561520030.0
hare bay,CA,48.86,-53.99,http://api.openweathermap.org/data/2.5/weather?appid=fe26e61e3773caebdade519f9d254704&units=imperial&q=hare bay,Canada,48.2,93.0,75.0,2.24,1561520030.0
dolbeau,CA,,,http://api.openweathermap.org/data/2.5/weather?appid=fe26e61e3773caebdade519f9d254704&units=imperial&q=dolbeau,Canada,,,,,
aklavik,CA,68.22,-135.01,http://api.openweathermap.org/data/2.5/weather?appid=fe26e61e3773caebdade519f9d254704&units=imperial&q=aklavik,Canada,41.0,65.0,75.0,13.87,1561520030.0
mayo,CA,63.59,-135.9,http://api.openweathermap.org/data/2.5/weather?appid=fe26e61e3773caebdade519f9d254704&units=imperial&q=mayo,Canada,73.4,28.0,90.0,9.17,1561520030.0
cape town,ZA,-33.93,18.42,http://api.openweathermap.org/data/2.5/weather?appid=fe26e61e3773caebdade519f9d254704&units=imperial&q=cape town,South Africa,59.0,76.0,0.0,8.05,1561519995.0
bredasdorp,ZA,-34.53,20.04,http://api.openweathermap.org/data/2.5/weather?appid=fe26e61e3773caebdade519f9d254704&units=imperial&q=bredasdorp,South Africa,60.8,77.0,84.0,12.75,1561520031.0
plettenberg bay,ZA,-34.05,23.37,http://api.openweathermap.org/data/2.5/weather?appid=fe26e61e3773caebdade519f9d254704&units=imperial&q=plettenberg bay,South Africa,50.3,81.0,0.0,3.67,1561520031.0
hermanus,ZA,-34.42,19.24,http://api.openweathermap.org/data/2.5/weather?appid=fe26e61e3773caebdade519f9d254704&units=imperial&q=hermanus,South Africa,57.99,91.0,73.0,4.0,1561520031.0
kruisfontein,ZA,-34.0,24.73,http://api.openweathermap.org/data/2.5/weather?appid=fe26e61e3773caebdade519f9d254704&units=imperial&q=kruisfontein,South Africa,54.08,91.0,100.0,13.24,1561520031.0
saldanha,ZA,41.42,-6.55,http://api.openweathermap.org/data/2.5/weather?appid=fe26e61e3773caebdade519f9d254704&units=imperial&q=saldanha,South Africa,59.84,79.0,45.0,1.5,1561520032.0
kokstad,ZA,-30.55,29.42,http://api.openweathermap.org/data/2.5/weather?appid=fe26e61e3773caebdade519f9d254704&units=imperial&q=kokstad,South Africa,38.42,95.0,57.0,3.44,1561520032.0
port alfred,ZA,-33.59,26.89,http://api.openweathermap.org/data/2.5/weather?appid=fe26e61e3773caebdade519f9d254704&units=imperial&q=port alfred,South Africa,60.01,93.0,30.0,7.0,1561520032.0
port shepstone,ZA,-30.74,30.45,http://api.openweathermap.org/data/2.5/weather?appid=fe26e61e3773caebdade519f9d254704&units=imperial&q=port shepstone,South Africa,51.92,92.0,0.0,3.49,1561519925.0
port elizabeth,ZA,39.31,-74.98,http://api.openweathermap.org/data/2.5/weather?appid=fe26e61e3773caebdade519f9d254704&units=imperial&q=port elizabeth,South Africa,78.8,94.0,1.0,4.7,1561519991.0
robertson,ZA,-33.8,19.88,http://api.openweathermap.org/data/2.5/weather?appid=fe26e61e3773caebdade519f9d254704&units=imperial&q=robertson,South Africa,47.78,96.0,78.0,4.36,1561520032.0
east london,ZA,-33.02,27.91,http://api.openweathermap.org/data/2.5/weather?appid=fe26e61e3773caebdade519f9d254704&units=imperial&q=east london,South Africa,59.0,93.0,90.0,16.11,1561519802.0
butterworth,ZA,5.4,100.37,http://api.openweathermap.org/data/2.5/weather?appid=fe26e61e3773caebdade519f9d254704&units=imperial&q=butterworth,South Africa,86.0,79.0,75.0,4.7,1561520035.0
hobart,AU,-42.88,147.33,http://api.openweathermap.org/data/2.5/weather?appid=fe26e61e3773caebdade519f9d254704&units=imperial&q=hobart,Australia,55.99,54.0,0.0,8.05,1561519965.0
carnarvon,AU,-30.97,22.13,http://api.openweathermap.org/data/2.5/weather?appid=fe26e61e3773caebdade519f9d254704&units=imperial&q=carnarvon,Australia,43.28,34.0,0.0,10.47,1561520036.0
roma,AU,41.89,12.48,http://api.openweathermap.org/data/2.5/weather?appid=fe26e61e3773caebdade519f9d254704&units=imperial&q=roma,Australia,75.99,73.0,0.0,2.24,1561520036.0
albany,AU,42.65,-73.75,http://api.openweathermap.org/data/2.5/weather?appid=fe26e61e3773caebdade519f9d254704&units=imperial&q=albany,Australia,73.4,60.0,20.0,9.17,1561519886.0
busselton,AU,-33.64,115.35,http://api.openweathermap.org/data/2.5/weather?appid=fe26e61e3773caebdade519f9d254704&units=imperial&q=busselton,Australia,66.0,70.0,0.0,36.69,1561520036.0
biloela,AU,-24.4,150.51,http://api.openweathermap.org/data/2.5/weather?appid=fe26e61e3773caebdade519f9d254704&units=imperial&q=biloela,Australia,59.3,85.0,100.0,21.43,1561520036.0
new norfolk,AU,-42.78,147.06,http://api.openweathermap.org/data/2.5/weather?appid=fe26e61e3773caebdade519f9d254704&units=imperial&q=new norfolk,Australia,55.99,54.0,0.0,8.05,1561520037.0
esperance,AU,10.24,-61.45,http://api.openweathermap.org/data/2.5/weather?appid=fe26e61e3773caebdade519f9d254704&units=imperial&q=esperance,Australia,80.01,78.0,20.0,4.7,1561520040.0
alyangula,AU,-13.85,136.42,http://api.openweathermap.org/data/2.5/weather?appid=fe26e61e3773caebdade519f9d254704&units=imperial&q=alyangula,Australia,80.6,42.0,57.0,12.75,1561520040.0
colac,AU,-38.34,143.59,http://api.openweathermap.org/data/2.5/weather?appid=fe26e61e3773caebdade519f9d254704&units=imperial&q=colac,Australia,59.0,78.0,0.0,3.0,1561520040.0
port augusta,AU,-32.49,137.76,http://api.openweathermap.org/data/2.5/weather?appid=fe26e61e3773caebdade519f9d254704&units=imperial&q=port augusta,Australia,66.2,37.0,0.0,9.17,1561520040.0
broome,AU,52.47,1.45,http://api.openweathermap.org/data/2.5/weather?appid=fe26e61e3773caebdade519f9d254704&units=imperial&q=broome,Australia,59.0,100.0,100.0,9.17,1561520040.0
portland,AU,45.52,-122.67,http://api.openweathermap.org/data/2.5/weather?appid=fe26e61e3773caebdade519f9d254704&units=imperial&q=portland,Australia,68.0,63.0,20.0,8.05,1561519568.0
nelson bay,AU,-32.72,152.14,http://api.openweathermap.org/data/2.5/weather?appid=fe26e61e3773caebdade519f9d254704&units=imperial&q=nelson bay,Australia,66.99,52.0,75.0,14.99,1561520041.0
mildura,AU,-34.18,142.16,http://api.openweathermap.org/data/2.5/weather?appid=fe26e61e3773caebdade519f9d254704&units=imperial&q=mildura,Australia,66.99,48.0,0.0,10.29,1561520041.0
flinders,AU,-34.58,150.85,http://api.openweathermap.org/data/2.5/weather?appid=fe26e61e3773caebdade519f9d254704&units=imperial&q=flinders,Australia,64.0,55.0,75.0,5.82,1561520041.0
mareeba,AU,-16.99,145.42,http://api.openweathermap.org/data/2.5/weather?appid=fe26e61e3773caebdade519f9d254704&units=imperial&q=mareeba,Australia,78.01,57.0,90.0,11.41,1561520041.0
emerald,AU,-23.53,148.16,http://api.openweathermap.org/data/2.5/weather?appid=fe26e61e3773caebdade519f9d254704&units=imperial&q=emerald,Australia,69.8,60.0,90.0,13.87,1561520041.0
port hedland,AU,-20.31,118.58,http://api.openweathermap.org/data/2.5/weather?appid=fe26e61e3773caebdade519f9d254704&units=imperial&q=port hedland,Australia,80.6,15.0,22.0,16.11,1561520041.0
port lincoln,AU,-34.72,135.86,http://api.openweathermap.org/data/2.5/weather?appid=fe26e61e3773caebdade519f9d254704&units=imperial&q=port lincoln,Australia,59.48,56.0,0.0,17.18,1561520042.0
ulladulla,AU,-35.36,150.48,http://api.openweathermap.org/data/2.5/weather?appid=fe26e61e3773caebdade519f9d254704&units=imperial&q=ulladulla,Australia,61.0,55.0,75.0,5.82,1561520042.0
wollongong,AU,-34.42,150.89,http://api.openweathermap.org/data/2.5/weather?appid=fe26e61e3773caebdade519f9d254704&units=imperial&q=wollongong,Australia,66.0,72.0,75.0,17.22,1561519939.0
ngukurr,AU,,,http://api.openweathermap.org/data/2.5/weather?appid=fe26e61e3773caebdade519f9d254704&units=imperial&q=ngukurr,Australia,,,,,
nhulunbuy,AU,-12.18,136.78,http://api.openweathermap.org/data/2.5/weather?appid=fe26e61e3773caebdade519f9d254704&units=imperial&q=nhulunbuy,Australia,78.8,57.0,75.0,16.11,1561520042.0
byron bay,AU,-28.65,153.62,http://api.openweathermap.org/data/2.5/weather?appid=fe26e61e3773caebdade519f9d254704&units=imperial&q=byron bay,Australia,66.2,82.0,75.0,9.17,1561520045.0
yulara,AU,-25.24,130.99,http://api.openweathermap.org/data/2.5/weather?appid=fe26e61e3773caebdade519f9d254704&units=imperial&q=yulara,Australia,66.2,17.0,0.0,9.17,1561520045.0
hervey bay,AU,-25.3,152.85,http://api.openweathermap.org/data/2.5/weather?appid=fe26e61e3773caebdade519f9d254704&units=imperial&q=hervey bay,Australia,68.0,93.0,90.0,10.29,1561520045.0
karratha,AU,-20.74,116.85,http://api.openweathermap.org/data/2.5/weather?appid=fe26e61e3773caebdade519f9d254704&units=imperial&q=karratha,Australia,81.62,16.0,98.0,10.63,1561519759.0
broken hill,AU,-31.97,141.45,http://api.openweathermap.org/data/2.5/weather?appid=fe26e61e3773caebdade519f9d254704&units=imperial&q=broken hill,Australia,64.4,39.0,0.0,13.87,1561520046.0
roebourne,AU,-20.77,117.15,http://api.openweathermap.org/data/2.5/weather?appid=fe26e61e3773caebdade519f9d254704&units=imperial&q=roebourne,Australia,81.98,15.0,81.0,11.61,1561520046.0
port macquarie,AU,-31.43,152.91,http://api.openweathermap.org/data/2.5/weather?appid=fe26e61e3773caebdade519f9d254704&units=imperial&q=port macquarie,Australia,64.0,93.0,75.0,5.82,1561520046.0
mount gambier,AU,-37.83,140.78,http://api.openweathermap.org/data/2.5/weather?appid=fe26e61e3773caebdade519f9d254704&units=imperial&q=mount gambier,Australia,60.8,63.0,80.0,12.75,1561519994.0
chokurdakh,RU,70.62,147.9,http://api.openweathermap.org/data/2.5/weather?appid=fe26e61e3773caebdade519f9d254704&units=imperial&q=chokurdakh,Russian Federation,77.12,25.0,0.0,10.25,1561520046.0
saskylakh,RU,71.97,114.09,http://api.openweathermap.org/data/2.5/weather?appid=fe26e61e3773caebdade519f9d254704&units=imperial&q=saskylakh,Russian Federation,84.32,27.0,45.0,10.51,1561520046.0
cherskiy,RU,68.75,161.3,http://api.openweathermap.org/data/2.5/weather?appid=fe26e61e3773caebdade519f9d254704&units=imperial&q=cherskiy,Russian Federation,76.4,15.0,67.0,14.9,1561520047.0
dikson,RU,73.51,80.55,http://api.openweathermap.org/data/2.5/weather?appid=fe26e61e3773caebdade519f9d254704&units=imperial&q=dikson,Russian Federation,32.84,96.0,87.0,20.67,1561520047.0
amderma,RU,,,http://api.openweathermap.org/data/2.5/weather?appid=fe26e61e3773caebdade519f9d254704&units=imperial&q=amderma,Russian Federation,,,,,
kytmanovo,RU,53.46,85.45,http://api.openweathermap.org/data/2.5/weather?appid=fe26e61e3773caebdade519f9d254704&units=imperial&q=kytmanovo,Russian Federation,61.82,69.0,71.0,4.97,1561520047.0
verkhnevilyuysk,RU,63.45,120.31,http://api.openweathermap.org/data/2.5/weather?appid=fe26e61e3773caebdade519f9d254704&units=imperial&q=verkhnevilyuysk,Russian Federation,74.6,51.0,0.0,4.21,1561519760.0
tigil,RU,57.8,158.67,http://api.openweathermap.org/data/2.5/weather?appid=fe26e61e3773caebdade519f9d254704&units=imperial&q=tigil,Russian Federation,61.28,61.0,8.0,15.82,1561520051.0
tiksi,RU,71.64,128.87,http://api.openweathermap.org/data/2.5/weather?appid=fe26e61e3773caebdade519f9d254704&units=imperial&q=tiksi,Russian Federation,59.84,53.0,51.0,4.74,1561519982.0
kholodnyy,RU,62.72,147.95,http://api.openweathermap.org/data/2.5/weather?appid=fe26e61e3773caebdade519f9d254704&units=imperial&q=kholodnyy,Russian Federation,60.56,49.0,31.0,16.08,1561520051.0
mirnyy,RU,56.57,36.46,http://api.openweathermap.org/data/2.5/weather?appid=fe26e61e3773caebdade519f9d254704&units=imperial&q=mirnyy,Russian Federation,57.32,76.0,90.0,6.44,1561520051.0
belushya guba,RU,,,http://api.openweathermap.org/data/2.5/weather?appid=fe26e61e3773caebdade519f9d254704&units=imperial&q=belushya guba,Russian Federation,,,,,
kamenka,RU,53.19,44.05,http://api.openweathermap.org/data/2.5/weather?appid=fe26e61e3773caebdade519f9d254704&units=imperial&q=kamenka,Russian Federation,54.98,82.0,24.0,8.08,1561520051.0
anadyr,RU,64.73,177.51,http://api.openweathermap.org/data/2.5/weather?appid=fe26e61e3773caebdade519f9d254704&units=imperial&q=anadyr,Russian Federation,50.0,76.0,90.0,13.42,1561520051.0
lukovetskiy,RU,64.29,41.92,http://api.openweathermap.org/data/2.5/weather?appid=fe26e61e3773caebdade519f9d254704&units=imperial&q=lukovetskiy,Russian Federation,53.6,81.0,20.0,4.47,1561520052.0
ostrovnoy,RU,68.05,39.51,http://api.openweathermap.org/data/2.5/weather?appid=fe26e61e3773caebdade519f9d254704&units=imperial&q=ostrovnoy,Russian Federation,49.58,63.0,0.0,12.48,1561520052.0
nizhneyansk,RU,,,http://api.openweathermap.org/data/2.5/weather?appid=fe26e61e3773caebdade519f9d254704&units=imperial&q=nizhneyansk,Russian Federation,,,,,
mys shmidta,RU,,,http://api.openweathermap.org/data/2.5/weather?appid=fe26e61e3773caebdade519f9d254704&units=imperial&q=mys shmidta,Russian Federation,,,,,
nikolskoye,RU,59.7,30.79,http://api.openweathermap.org/data/2.5/weather?appid=fe26e61e3773caebdade519f9d254704&units=imperial&q=nikolskoye,Russian Federation,61.0,67.0,0.0,2.24,1561519990.0
tazovskiy,RU,67.47,78.7,http://api.openweathermap.org/data/2.5/weather?appid=fe26e61e3773caebdade519f9d254704&units=imperial&q=tazovskiy,Russian Federation,42.56,58.0,0.0,7.74,1561519795.0
okha,RU,53.59,142.95,http://api.openweathermap.org/data/2.5/weather?appid=fe26e61e3773caebdade519f9d254704&units=imperial&q=okha,Russian Federation,42.56,92.0,99.0,22.24,1561520052.0
pervomayskiy,RU,53.24,40.29,http://api.openweathermap.org/data/2.5/weather?appid=fe26e61e3773caebdade519f9d254704&units=imperial&q=pervomayskiy,Russian Federation,56.24,82.0,79.0,4.52,1561520053.0
borogontsy,RU,62.67,131.17,http://api.openweathermap.org/data/2.5/weather?appid=fe26e61e3773caebdade519f9d254704&units=imperial&q=borogontsy,Russian Federation,74.24,32.0,34.0,4.21,1561520053.0
beringovskiy,RU,63.05,179.32,http://api.openweathermap.org/data/2.5/weather?appid=fe26e61e3773caebdade519f9d254704&units=imperial&q=beringovskiy,Russian Federation,42.92,96.0,100.0,14.5,1561520053.0
mnogovershinnyy,RU,53.94,139.92,http://api.openweathermap.org/data/2.5/weather?appid=fe26e61e3773caebdade519f9d254704&units=imperial&q=mnogovershinnyy,Russian Federation,45.08,85.0,100.0,7.92,1561520053.0
kargopol,RU,61.51,38.95,http://api.openweathermap.org/data/2.5/weather?appid=fe26e61e3773caebdade519f9d254704&units=imperial&q=kargopol,Russian Federation,50.84,94.0,99.0,4.99,1561520053.0
oktyabrskiy,RU,55.61,37.97,http://api.openweathermap.org/data/2.5/weather?appid=fe26e61e3773caebdade519f9d254704&units=imperial&q=oktyabrskiy,Russian Federation,64.0,76.0,0.0,2.24,1561520054.0
provideniya,RU,64.42,-173.23,http://api.openweathermap.org/data/2.5/weather?appid=fe26e61e3773caebdade519f9d254704&units=imperial&q=provideniya,Russian Federation,50.0,71.0,90.0,22.37,1561520054.0
taldan,RU,53.69,124.82,http://api.openweathermap.org/data/2.5/weather?appid=fe26e61e3773caebdade519f9d254704&units=imperial&q=taldan,Russian Federation,70.64,45.0,0.0,6.71,1561520054.0
kamen-na-obi,RU,53.79,81.35,http://api.openweathermap.org/data/2.5/weather?appid=fe26e61e3773caebdade519f9d254704&units=imperial&q=kamen-na-obi,Russian Federation,66.86,72.0,0.0,7.65,1561520054.0
khatanga,RU,71.98,102.47,http://api.openweathermap.org/data/2.5/weather?appid=fe26e61e3773caebdade519f9d254704&units=imperial&q=khatanga,Russian Federation,59.12,62.0,100.0,15.68,1561520054.0
lokosovo,RU,61.13,74.84,http://api.openweathermap.org/data/2.5/weather?appid=fe26e61e3773caebdade519f9d254704&units=imperial&q=lokosovo,Russian Federation,51.56,66.0,100.0,15.88,1561520054.0
togur,RU,58.36,82.83,http://api.openweathermap.org/data/2.5/weather?appid=fe26e61e3773caebdade519f9d254704&units=imperial&q=togur,Russian Federation,71.72,62.0,67.0,7.92,1561520055.0
leningradskiy,RU,69.38,178.42,http://api.openweathermap.org/data/2.5/weather?appid=fe26e61e3773caebdade519f9d254704&units=imperial&q=leningradskiy,Russian Federation,35.0,88.0,78.0,17.31,1561520055.0
gayny,RU,60.3,54.33,http://api.openweathermap.org/data/2.5/weather?appid=fe26e61e3773caebdade519f9d254704&units=imperial&q=gayny,Russian Federation,54.26,63.0,90.0,3.04,1561520055.0
deputatskiy,RU,69.3,139.9,http://api.openweathermap.org/data/2.5/weather?appid=fe26e61e3773caebdade519f9d254704&units=imperial&q=deputatskiy,Russian Federation,73.7,32.0,0.0,14.72,1561520055.0
synya,RU,65.37,58.04,http://api.openweathermap.org/data/2.5/weather?appid=fe26e61e3773caebdade519f9d254704&units=imperial&q=synya,Russian Federation,49.04,63.0,100.0,5.86,1561520055.0
ordynskoye,RU,54.37,81.9,http://api.openweathermap.org/data/2.5/weather?appid=fe26e61e3773caebdade519f9d254704&units=imperial&q=ordynskoye,Russian Federation,66.5,77.0,0.0,7.92,1561520055.0
dauriya,RU,49.93,116.85,http://api.openweathermap.org/data/2.5/weather?appid=fe26e61e3773caebdade519f9d254704&units=imperial&q=dauriya,Russian Federation,62.72,93.0,100.0,14.12,1561520056.0
tokur,RU,53.13,132.9,http://api.openweathermap.org/data/2.5/weather?appid=fe26e61e3773caebdade519f9d254704&units=imperial&q=tokur,Russian Federation,57.5,55.0,78.0,7.11,1561520056.0
fevralsk,RU,,,http://api.openweathermap.org/data/2.5/weather?appid=fe26e61e3773caebdade519f9d254704&units=imperial&q=fevralsk,Russian Federation,,,,,
almaznyy,RU,48.03,40.04,http://api.openweathermap.org/data/2.5/weather?appid=fe26e61e3773caebdade519f9d254704&units=imperial&q=almaznyy,Russian Federation,69.8,37.0,0.0,13.42,1561520056.0
vrangel,RU,42.73,133.08,http://api.openweathermap.org/data/2.5/weather?appid=fe26e61e3773caebdade519f9d254704&units=imperial&q=vrangel,Russian Federation,75.5,60.0,70.0,5.99,1561520056.0
staraya kulatka,RU,52.73,47.62,http://api.openweathermap.org/data/2.5/weather?appid=fe26e61e3773caebdade519f9d254704&units=imperial&q=staraya kulatka,Russian Federation,56.96,79.0,99.0,9.82,1561520057.0
petropavlovsk-kamchatskiy,RU,53.05,158.65,http://api.openweathermap.org/data/2.5/weather?appid=fe26e61e3773caebdade519f9d254704&units=imperial&q=petropavlovsk-kamchatskiy,Russian Federation,46.4,100.0,90.0,13.42,1561520057.0
pevek,RU,69.7,170.27,http://api.openweathermap.org/data/2.5/weather?appid=fe26e61e3773caebdade519f9d254704&units=imperial&q=pevek,Russian Federation,35.54,84.0,0.0,24.45,1561520057.0
bilibino,RU,68.06,166.44,http://api.openweathermap.org/data/2.5/weather?appid=fe26e61e3773caebdade519f9d254704&units=imperial&q=bilibino,Russian Federation,61.82,28.0,0.0,18.43,1561520057.0
tumannyy,RU,,,http://api.openweathermap.org/data/2.5/weather?appid=fe26e61e3773caebdade519f9d254704&units=imperial&q=tumannyy,Russian Federation,,,,,
vostok,RU,46.45,135.83,http://api.openweathermap.org/data/2.5/weather?appid=fe26e61e3773caebdade519f9d254704&units=imperial&q=vostok,Russian Federation,72.98,71.0,100.0,5.93,1561520057.0
yar-sale,RU,66.83,70.83,http://api.openweathermap.org/data/2.5/weather?appid=fe26e61e3773caebdade519f9d254704&units=imperial&q=yar-sale,Russian Federation,48.14,57.0,64.0,12.86,1561520058.0
kamenskoye,RU,,,http://api.openweathermap.org/data/2.5/weather?appid=fe26e61e3773caebdade519f9d254704&units=imperial&q=kamenskoye,Russian Federation,,,,,
yerbogachen,RU,61.28,108.01,http://api.openweathermap.org/data/2.5/weather?appid=fe26e61e3773caebdade519f9d254704&units=imperial&q=yerbogachen,Russian Federation,78.38,35.0,0.0,9.08,1561520058.0
sentyabrskiy,RU,,,http://api.openweathermap.org/data/2.5/weather?appid=fe26e61e3773caebdade519f9d254704&units=imperial&q=sentyabrskiy,Russian Federation,,,,,
lavrentiya,RU,65.58,-170.99,http://api.openweathermap.org/data/2.5/weather?appid=fe26e61e3773caebdade519f9d254704&units=imperial&q=lavrentiya,Russian Federation,51.56,52.0,100.0,9.37,1561520058.0
khasan,RU,42.43,130.64,http://api.openweathermap.org/data/2.5/weather?appid=fe26e61e3773caebdade519f9d254704&units=imperial&q=khasan,Russian Federation,81.08,55.0,59.0,7.78,1561520058.0
zhigalovo,RU,54.81,105.15,http://api.openweathermap.org/data/2.5/weather?appid=fe26e61e3773caebdade519f9d254704&units=imperial&q=zhigalovo,Russian Federation,51.92,98.0,100.0,3.8,1561520058.0
talakan,RU,50.29,130.28,http://api.openweathermap.org/data/2.5/weather?appid=fe26e61e3773caebdade519f9d254704&units=imperial&q=talakan,Russian Federation,76.58,48.0,87.0,3.91,1561520058.0
baykit,RU,61.68,96.39,http://api.openweathermap.org/data/2.5/weather?appid=fe26e61e3773caebdade519f9d254704&units=imperial&q=baykit,Russian Federation,78.02,30.0,100.0,2.84,1561520059.0
srednekolymsk,RU,67.46,153.71,http://api.openweathermap.org/data/2.5/weather?appid=fe26e61e3773caebdade519f9d254704&units=imperial&q=srednekolymsk,Russian Federation,82.34,20.0,1.0,11.9,1561520059.0
gari,RU,59.43,62.35,http://api.openweathermap.org/data/2.5/weather?appid=fe26e61e3773caebdade519f9d254704&units=imperial&q=gari,Russian Federation,56.24,54.0,33.0,8.52,1561520059.0
shakhovskaya,RU,56.03,35.51,http://api.openweathermap.org/data/2.5/weather?appid=fe26e61e3773caebdade519f9d254704&units=imperial&q=shakhovskaya,Russian Federation,56.78,79.0,92.0,4.59,1561520059.0
solovetskiy,RU,,,http://api.openweathermap.org/data/2.5/weather?appid=fe26e61e3773caebdade519f9d254704&units=imperial&q=solovetskiy,Russian Federation,,,,,
svetlaya,RU,46.54,138.33,http://api.openweathermap.org/data/2.5/weather?appid=fe26e61e3773caebdade519f9d254704&units=imperial&q=svetlaya,Russian Federation,60.2,98.0,99.0,5.5,1561520059.0
talnakh,RU,69.49,88.39,http://api.openweathermap.org/data/2.5/weather?appid=fe26e61e3773caebdade519f9d254704&units=imperial&q=talnakh,Russian Federation,41.0,60.0,75.0,11.18,1561520060.0
ust-kut,RU,56.78,105.75,http://api.openweathermap.org/data/2.5/weather?appid=fe26e61e3773caebdade519f9d254704&units=imperial&q=ust-kut,Russian Federation,75.5,35.0,45.0,10.29,1561520060.0
ola,RU,59.58,151.3,http://api.openweathermap.org/data/2.5/weather?appid=fe26e61e3773caebdade519f9d254704&units=imperial&q=ola,Russian Federation,48.86,73.0,3.0,4.14,1561520060.0
kosh-agach,RU,49.99,88.66,http://api.openweathermap.org/data/2.5/weather?appid=fe26e61e3773caebdade519f9d254704&units=imperial&q=kosh-agach,Russian Federation,44.9,42.0,0.0,2.06,1561520060.0
usinsk,RU,66.0,57.56,http://api.openweathermap.org/data/2.5/weather?appid=fe26e61e3773caebdade519f9d254704&units=imperial&q=usinsk,Russian Federation,50.3,67.0,100.0,11.01,1561520061.0
khani,RU,41.96,42.96,http://api.openweathermap.org/data/2.5/weather?appid=fe26e61e3773caebdade519f9d254704&units=imperial&q=khani,Russian Federation,77.0,94.0,75.0,3.36,1561520061.0
onega,RU,63.91,38.09,http://api.openweathermap.org/data/2.5/weather?appid=fe26e61e3773caebdade519f9d254704&units=imperial&q=onega,Russian Federation,48.68,90.0,2.0,3.58,1561520064.0
komsomolskiy,RU,67.55,63.78,http://api.openweathermap.org/data/2.5/weather?appid=fe26e61e3773caebdade519f9d254704&units=imperial&q=komsomolskiy,Russian Federation,42.2,89.0,100.0,12.26,1561520064.0
magadan,RU,59.56,150.8,http://api.openweathermap.org/data/2.5/weather?appid=fe26e61e3773caebdade519f9d254704&units=imperial&q=magadan,Russian Federation,48.86,74.0,2.0,6.02,1561520064.0
severo-kurilsk,RU,50.68,156.12,http://api.openweathermap.org/data/2.5/weather?appid=fe26e61e3773caebdade519f9d254704&units=imperial&q=severo-kurilsk,Russian Federation,43.64,94.0,100.0,22.41,1561520064.0
suntar,RU,62.16,117.65,http://api.openweathermap.org/data/2.5/weather?appid=fe26e61e3773caebdade519f9d254704&units=imperial&q=suntar,Russian Federation,75.32,45.0,0.0,5.7,1561520065.0
severo-yeniseyskiy,RU,60.37,93.04,http://api.openweathermap.org/data/2.5/weather?appid=fe26e61e3773caebdade519f9d254704&units=imperial&q=severo-yeniseyskiy,Russian Federation,71.0,54.0,100.0,5.82,1561520065.0
ayan,RU,40.67,33.6,http://api.openweathermap.org/data/2.5/weather?appid=fe26e61e3773caebdade519f9d254704&units=imperial&q=ayan,Russian Federation,58.58,84.0,0.0,2.71,1561520060.0
blagoveshchensk,RU,50.29,127.53,http://api.openweathermap.org/data/2.5/weather?appid=fe26e61e3773caebdade519f9d254704&units=imperial&q=blagoveshchensk,Russian Federation,69.8,56.0,20.0,11.18,1561520065.0
udachnyy,RU,66.42,112.4,http://api.openweathermap.org/data/2.5/weather?appid=fe26e61e3773caebdade519f9d254704&units=imperial&q=udachnyy,Russian Federation,77.0,38.0,0.0,2.24,1561519803.0
olenegorsk,RU,68.14,33.28,http://api.openweathermap.org/data/2.5/weather?appid=fe26e61e3773caebdade519f9d254704&units=imperial&q=olenegorsk,Russian Federation,51.74,69.0,82.0,4.45,1561520065.0
belyy yar,RU,53.6,91.39,http://api.openweathermap.org/data/2.5/weather?appid=fe26e61e3773caebdade519f9d254704&units=imperial&q=belyy yar,Russian Federation,57.2,82.0,0.0,6.71,1561520065.0
ushuaia,AR,-54.81,-68.31,http://api.openweathermap.org/data/2.5/weather?appid=fe26e61e3773caebdade519f9d254704&units=imperial&q=ushuaia,Argentina,30.2,92.0,75.0,3.36,1561520066.0
rio gallegos,AR,-51.62,-69.22,http://api.openweathermap.org/data/2.5/weather?appid=fe26e61e3773caebdade519f9d254704&units=imperial&q=rio gallegos,Argentina,35.6,80.0,90.0,8.05,1561519831.0
comodoro rivadavia,AR,-45.87,-67.48,http://api.openweathermap.org/data/2.5/weather?appid=fe26e61e3773caebdade519f9d254704&units=imperial&q=comodoro rivadavia,Argentina,50.0,53.0,0.0,8.05,1561519856.0
mar del plata,AR,-46.43,-67.52,http://api.openweathermap.org/data/2.5/weather?appid=fe26e61e3773caebdade519f9d254704&units=imperial&q=mar del plata,Argentina,42.56,58.0,100.0,18.92,1561520066.0
general pico,AR,-35.66,-63.75,http://api.openweathermap.org/data/2.5/weather?appid=fe26e61e3773caebdade519f9d254704&units=imperial&q=general pico,Argentina,44.18,41.0,33.0,9.26,1561520066.0
san juan,AR,18.47,-66.12,http://api.openweathermap.org/data/2.5/weather?appid=fe26e61e3773caebdade519f9d254704&units=imperial&q=san juan,Argentina,82.4,78.0,20.0,4.7,1561519997.0
reconquista,AR,-29.14,-59.64,http://api.openweathermap.org/data/2.5/weather?appid=fe26e61e3773caebdade519f9d254704&units=imperial&q=reconquista,Argentina,42.02,60.0,33.0,5.19,1561520067.0
tres arroyos,AR,-38.38,-60.28,http://api.openweathermap.org/data/2.5/weather?appid=fe26e61e3773caebdade519f9d254704&units=imperial&q=tres arroyos,Argentina,38.42,61.0,0.0,8.21,1561520067.0
necochea,AR,-38.55,-58.74,http://api.openweathermap.org/data/2.5/weather?appid=fe26e61e3773caebdade519f9d254704&units=imperial&q=necochea,Argentina,39.99,86.0,1.0,8.01,1561520071.0
concordia,AR,-31.4,-58.02,http://api.openweathermap.org/data/2.5/weather?appid=fe26e61e3773caebdade519f9d254704&units=imperial&q=concordia,Argentina,41.0,70.0,0.0,7.05,1561520071.0
presidencia roque saenz pena,AR,-26.79,-60.44,http://api.openweathermap.org/data/2.5/weather?appid=fe26e61e3773caebdade519f9d254704&units=imperial&q=presidencia roque saenz pena,Argentina,45.44,58.0,100.0,5.26,1561520071.0
rawson,AR,-43.3,-65.11,http://api.openweathermap.org/data/2.5/weather?appid=fe26e61e3773caebdade519f9d254704&units=imperial&q=rawson,Argentina,41.12,55.0,99.0,18.45,1561520071.0
taolanaro,MG,,,http://api.openweathermap.org/data/2.5/weather?appid=fe26e61e3773caebdade519f9d254704&units=imperial&q=taolanaro,Madagascar,,,,,
tsihombe,MG,,,http://api.openweathermap.org/data/2.5/weather?appid=fe26e61e3773caebdade519f9d254704&units=imperial&q=tsihombe,Madagascar,,,,,
sambava,MG,-14.27,50.17,http://api.openweathermap.org/data/2.5/weather?appid=fe26e61e3773caebdade519f9d254704&units=imperial&q=sambava,Madagascar,63.08,93.0,0.0,2.55,1561520071.0
ampanihy,MG,-24.69,44.75,http://api.openweathermap.org/data/2.5/weather?appid=fe26e61e3773caebdade519f9d254704&units=imperial&q=ampanihy,Madagascar,60.56,93.0,0.0,3.6,1561520072.0
antsohihy,MG,-14.88,47.99,http://api.openweathermap.org/data/2.5/weather?appid=fe26e61e3773caebdade519f9d254704&units=imperial&q=antsohihy,Madagascar,71.9,82.0,0.0,7.36,1561520072.0
antalaha,MG,-14.9,50.28,http://api.openweathermap.org/data/2.5/weather?appid=fe26e61e3773caebdade519f9d254704&units=imperial&q=antalaha,Madagascar,63.44,99.0,19.0,3.13,1561520072.0
beloha,MG,-25.17,45.06,http://api.openweathermap.org/data/2.5/weather?appid=fe26e61e3773caebdade519f9d254704&units=imperial&q=beloha,Madagascar,60.74,93.0,0.0,4.43,1561520072.0
morondava,MG,-20.3,44.28,http://api.openweathermap.org/data/2.5/weather?appid=fe26e61e3773caebdade519f9d254704&units=imperial&q=morondava,Madagascar,72.26,65.0,0.0,13.47,1561520073.0
bluff,NZ,-23.58,149.07,http://api.openweathermap.org/data/2.5/weather?appid=fe26e61e3773caebdade519f9d254704&units=imperial&q=bluff,New Zealand,67.04,66.0,34.0,22.21,1561519993.0
tuatapere,NZ,-46.13,167.69,http://api.openweathermap.org/data/2.5/weather?appid=fe26e61e3773caebdade519f9d254704&units=imperial&q=tuatapere,New Zealand,52.0,80.0,99.0,8.99,1561520076.0
kaitangata,NZ,-46.28,169.85,http://api.openweathermap.org/data/2.5/weather?appid=fe26e61e3773caebdade519f9d254704&units=imperial&q=kaitangata,New Zealand,51.01,54.0,0.0,4.0,1561520076.0
ahipara,NZ,-35.17,173.16,http://api.openweathermap.org/data/2.5/weather?appid=fe26e61e3773caebdade519f9d254704&units=imperial&q=ahipara,New Zealand,58.22,79.0,0.0,13.82,1561520076.0
waharoa,NZ,-37.76,175.76,http://api.openweathermap.org/data/2.5/weather?appid=fe26e61e3773caebdade519f9d254704&units=imperial&q=waharoa,New Zealand,61.0,63.0,0.0,1.79,1561520076.0
whitianga,NZ,-36.83,175.7,http://api.openweathermap.org/data/2.5/weather?appid=fe26e61e3773caebdade519f9d254704&units=imperial&q=whitianga,New Zealand,59.0,72.0,27.0,1.52,1561520076.0
dunedin,NZ,-45.87,170.5,http://api.openweathermap.org/data/2.5/weather?appid=fe26e61e3773caebdade519f9d254704&units=imperial&q=dunedin,New Zealand,48.68,61.0,0.0,2.33,1561520077.0
ruatoria,NZ,,,http://api.openweathermap.org/data/2.5/weather?appid=fe26e61e3773caebdade519f9d254704&units=imperial&q=ruatoria,New Zealand,,,,,
kaeo,NZ,-35.1,173.78,http://api.openweathermap.org/data/2.5/weather?appid=fe26e61e3773caebdade519f9d254704&units=imperial&q=kaeo,New Zealand,57.0,84.0,2.0,3.0,1561520077.0
christchurch,NZ,-43.53,172.64,http://api.openweathermap.org/data/2.5/weather?appid=fe26e61e3773caebdade519f9d254704&units=imperial&q=christchurch,New Zealand,52.0,76.0,41.0,11.41,1561519943.0
waipawa,NZ,-39.94,176.59,http://api.openweathermap.org/data/2.5/weather?appid=fe26e61e3773caebdade519f9d254704&units=imperial&q=waipawa,New Zealand,52.28,72.0,0.0,4.38,1561519788.0
te anau,NZ,-45.41,167.72,http://api.openweathermap.org/data/2.5/weather?appid=fe26e61e3773caebdade519f9d254704&units=imperial&q=te anau,New Zealand,45.62,67.0,0.0,9.51,1561520077.0
ribeira grande,PT,38.52,-28.7,http://api.openweathermap.org/data/2.5/weather?appid=fe26e61e3773caebdade519f9d254704&units=imperial&q=ribeira grande,Portugal,65.96,71.0,93.0,13.96,1561520077.0
camacha,PT,33.08,-16.33,http://api.openweathermap.org/data/2.5/weather?appid=fe26e61e3773caebdade519f9d254704&units=imperial&q=camacha,Portugal,68.0,77.0,75.0,8.05,1561520077.0
praia da vitoria,PT,38.73,-27.07,http://api.openweathermap.org/data/2.5/weather?appid=fe26e61e3773caebdade519f9d254704&units=imperial&q=praia da vitoria,Portugal,64.99,88.0,40.0,13.8,1561520078.0
vila franca do campo,PT,37.72,-25.43,http://api.openweathermap.org/data/2.5/weather?appid=fe26e61e3773caebdade519f9d254704&units=imperial&q=vila franca do campo,Portugal,64.4,82.0,75.0,9.17,1561520078.0
lagoa,PT,37.14,-8.45,http://api.openweathermap.org/data/2.5/weather?appid=fe26e61e3773caebdade519f9d254704&units=imperial&q=lagoa,Portugal,68.0,100.0,40.0,3.36,1561520078.0
mataura,PF,-46.19,168.86,http://api.openweathermap.org/data/2.5/weather?appid=fe26e61e3773caebdade519f9d254704&units=imperial&q=mataura,French Polynesia,52.0,80.0,46.0,8.99,1561520078.0
atuona,PF,-9.8,-139.03,http://api.openweathermap.org/data/2.5/weather?appid=fe26e61e3773caebdade519f9d254704&units=imperial&q=atuona,French Polynesia,81.08,77.0,0.0,17.72,1561520078.0
moerai,PF,-22.43,-151.33,http://api.openweathermap.org/data/2.5/weather?appid=fe26e61e3773caebdade519f9d254704&units=imperial&q=moerai,French Polynesia,71.54,70.0,6.0,14.81,1561520079.0
vaitape,PF,-16.52,-151.75,http://api.openweathermap.org/data/2.5/weather?appid=fe26e61e3773caebdade519f9d254704&units=imperial&q=vaitape,French Polynesia,79.64,78.0,14.0,13.65,1561520079.0
rikitea,PF,-23.12,-134.97,http://api.openweathermap.org/data/2.5/weather?appid=fe26e61e3773caebdade519f9d254704&units=imperial&q=rikitea,French Polynesia,73.34,81.0,0.0,7.18,1561520079.0
teahupoo,PF,-17.83,-149.27,http://api.openweathermap.org/data/2.5/weather?appid=fe26e61e3773caebdade519f9d254704&units=imperial&q=teahupoo,French Polynesia,82.4,65.0,40.0,5.82,1561520079.0
faanui,PF,-16.48,-151.75,http://api.openweathermap.org/data/2.5/weather?appid=fe26e61e3773caebdade519f9d254704&units=imperial&q=faanui,French Polynesia,79.64,78.0,14.0,13.65,1561520079.0
avera,PF,33.19,-82.53,http://api.openweathermap.org/data/2.5/weather?appid=fe26e61e3773caebdade519f9d254704&units=imperial&q=avera,French Polynesia,77.0,83.0,1.0,3.36,1561520079.0
manati,CU,41.76,19.67,http://api.openweathermap.org/data/2.5/weather?appid=fe26e61e3773caebdade519f9d254704&units=imperial&q=manati,Cuba,69.8,83.0,0.0,2.24,1561520080.0
bahia honda,CU,22.9,-83.16,http://api.openweathermap.org/data/2.5/weather?appid=fe26e61e3773caebdade519f9d254704&units=imperial&q=bahia honda,Cuba,83.96,77.0,0.0,16.2,1561520080.0
muros,ES,42.77,-9.06,http://api.openweathermap.org/data/2.5/weather?appid=fe26e61e3773caebdade519f9d254704&units=imperial&q=muros,Spain,64.99,93.0,0.0,2.24,1561520080.0
los llanos de aridane,ES,28.66,-17.92,http://api.openweathermap.org/data/2.5/weather?appid=fe26e61e3773caebdade519f9d254704&units=imperial&q=los llanos de aridane,Spain,68.0,72.0,0.0,3.36,1561520080.0
betanzos,ES,43.28,-8.21,http://api.openweathermap.org/data/2.5/weather?appid=fe26e61e3773caebdade519f9d254704&units=imperial&q=betanzos,Spain,64.0,93.0,100.0,4.7,1561520080.0
canals,ES,38.96,-0.58,http://api.openweathermap.org/data/2.5/weather?appid=fe26e61e3773caebdade519f9d254704&units=imperial&q=canals,Spain,73.99,83.0,75.0,6.93,1561520080.0
mahon,ES,51.89,-8.4,http://api.openweathermap.org/data/2.5/weather?appid=fe26e61e3773caebdade519f9d254704&units=imperial&q=mahon,Spain,61.0,93.0,75.0,6.93,1561520081.0
bermeo,ES,43.42,-2.72,http://api.openweathermap.org/data/2.5/weather?appid=fe26e61e3773caebdade519f9d254704&units=imperial&q=bermeo,Spain,66.99,93.0,75.0,2.24,1561520081.0
aguimes,ES,27.91,-15.45,http://api.openweathermap.org/data/2.5/weather?appid=fe26e61e3773caebdade519f9d254704&units=imperial&q=aguimes,Spain,71.6,73.0,20.0,12.75,1561520081.0
vaini,TO,15.34,74.49,http://api.openweathermap.org/data/2.5/weather?appid=fe26e61e3773caebdade519f9d254704&units=imperial&q=vaini,Tonga,75.2,88.0,75.0,6.93,1561520081.0
saint-philippe,RE,45.36,-73.48,http://api.openweathermap.org/data/2.5/weather?appid=fe26e61e3773caebdade519f9d254704&units=imperial&q=saint-philippe,Réunion,71.6,82.0,1.0,2.24,1561520081.0
saint-leu,RE,-21.15,55.28,http://api.openweathermap.org/data/2.5/weather?appid=fe26e61e3773caebdade519f9d254704&units=imperial&q=saint-leu,Réunion,69.8,83.0,100.0,4.7,1561520082.0
saint-joseph,RE,43.56,6.97,http://api.openweathermap.org/data/2.5/weather?appid=fe26e61e3773caebdade519f9d254704&units=imperial&q=saint-joseph,Réunion,80.6,73.0,0.0,2.24,1561520082.0
chicama,PE,-7.84,-79.15,http://api.openweathermap.org/data/2.5/weather?appid=fe26e61e3773caebdade519f9d254704&units=imperial&q=chicama,Peru,64.4,82.0,90.0,11.41,1561520082.0
paramonga,PE,-10.68,-77.82,http://api.openweathermap.org/data/2.5/weather?appid=fe26e61e3773caebdade519f9d254704&units=imperial&q=paramonga,Peru,60.92,89.0,70.0,11.52,1561520082.0
marcona,PE,,,http://api.openweathermap.org/data/2.5/weather?appid=fe26e61e3773caebdade519f9d254704&units=imperial&q=marcona,Peru,,,,,
pimentel,PE,-3.7,-45.5,http://api.openweathermap.org/data/2.5/weather?appid=fe26e61e3773caebdade519f9d254704&units=imperial&q=pimentel,Peru,71.18,95.0,0.0,1.72,1561520082.0
sechura,PE,-5.56,-80.82,http://api.openweathermap.org/data/2.5/weather?appid=fe26e61e3773caebdade519f9d254704&units=imperial&q=sechura,Peru,64.34,89.0,6.0,15.37,1561520083.0
hualmay,PE,-11.1,-77.61,http://api.openweathermap.org/data/2.5/weather?appid=fe26e61e3773caebdade519f9d254704&units=imperial&q=hualmay,Peru,62.72,85.0,53.0,15.57,1561520083.0
pisco,PE,-13.71,-76.2,http://api.openweathermap.org/data/2.5/weather?appid=fe26e61e3773caebdade519f9d254704&units=imperial&q=pisco,Peru,59.0,87.0,20.0,5.82,1561520083.0
cayenne,GF,4.94,-52.33,http://api.openweathermap.org/data/2.5/weather?appid=fe26e61e3773caebdade519f9d254704&units=imperial&q=cayenne,French Guiana,77.0,94.0,83.0,3.74,1561520083.0
roura,GF,4.73,-52.33,http://api.openweathermap.org/data/2.5/weather?appid=fe26e61e3773caebdade519f9d254704&units=imperial&q=roura,French Guiana,77.0,94.0,92.0,1.57,1561520083.0
saint-georges,GF,46.12,-70.67,http://api.openweathermap.org/data/2.5/weather?appid=fe26e61e3773caebdade519f9d254704&units=imperial&q=saint-georges,French Guiana,59.0,100.0,83.0,3.0,1561520084.0
sinnamary,GF,5.38,-52.96,http://api.openweathermap.org/data/2.5/weather?appid=fe26e61e3773caebdade519f9d254704&units=imperial&q=sinnamary,French Guiana,81.08,80.0,100.0,13.2,1561520084.0
hilo,US,19.71,-155.08,http://api.openweathermap.org/data/2.5/weather?appid=fe26e61e3773caebdade519f9d254704&units=imperial&q=hilo,United States,82.4,61.0,40.0,16.11,1561519786.0
kapaa,US,22.08,-159.32,http://api.openweathermap.org/data/2.5/weather?appid=fe26e61e3773caebdade519f9d254704&units=imperial&q=kapaa,United States,77.0,94.0,90.0,5.82,1561520084.0
sunrise manor,US,36.21,-115.07,http://api.openweathermap.org/data/2.5/weather?appid=fe26e61e3773caebdade519f9d254704&units=imperial&q=sunrise manor,United States,93.2,5.0,1.0,18.34,1561520029.0
havelock,US,34.88,-76.9,http://api.openweathermap.org/data/2.5/weather?appid=fe26e61e3773caebdade519f9d254704&units=imperial&q=havelock,United States,80.6,61.0,1.0,2.82,1561520029.0
pahrump,US,36.21,-115.98,http://api.openweathermap.org/data/2.5/weather?appid=fe26e61e3773caebdade519f9d254704&units=imperial&q=pahrump,United States,90.0,8.0,1.0,16.11,1561519916.0
juneau,US,58.3,-134.42,http://api.openweathermap.org/data/2.5/weather?appid=fe26e61e3773caebdade519f9d254704&units=imperial&q=juneau,United States,73.4,46.0,20.0,10.29,1561520084.0
lompoc,US,34.64,-120.46,http://api.openweathermap.org/data/2.5/weather?appid=fe26e61e3773caebdade519f9d254704&units=imperial&q=lompoc,United States,64.0,77.0,90.0,9.17,1561520023.0
kodiak,US,39.95,-94.76,http://api.openweathermap.org/data/2.5/weather?appid=fe26e61e3773caebdade519f9d254704&units=imperial&q=kodiak,United States,78.01,83.0,1.0,5.82,1561520085.0
rogers,US,36.33,-94.12,http://api.openweathermap.org/data/2.5/weather?appid=fe26e61e3773caebdade519f9d254704&units=imperial&q=rogers,United States,77.0,88.0,1.0,5.82,1561520085.0
bethel,US,60.79,-161.76,http://api.openweathermap.org/data/2.5/weather?appid=fe26e61e3773caebdade519f9d254704&units=imperial&q=bethel,United States,66.2,93.0,90.0,19.46,1561520085.0
sand springs,US,36.14,-96.11,http://api.openweathermap.org/data/2.5/weather?appid=fe26e61e3773caebdade519f9d254704&units=imperial&q=sand springs,United States,82.4,69.0,1.0,4.7,1561520086.0
sitka,US,37.17,-99.65,http://api.openweathermap.org/data/2.5/weather?appid=fe26e61e3773caebdade519f9d254704&units=imperial&q=sitka,United States,73.99,76.0,0.0,1.99,1561520086.0
lamar,US,38.09,-102.62,http://api.openweathermap.org/data/2.5/weather?appid=fe26e61e3773caebdade519f9d254704&units=imperial&q=lamar,United States,71.6,46.0,1.0,11.41,1561520086.0
crestview,US,30.76,-86.57,http://api.openweathermap.org/data/2.5/weather?appid=fe26e61e3773caebdade519f9d254704&units=imperial&q=crestview,United States,81.0,83.0,1.0,4.7,1561520041.0
homer,US,59.64,-151.54,http://api.openweathermap.org/data/2.5/weather?appid=fe26e61e3773caebdade519f9d254704&units=imperial&q=homer,United States,64.4,55.0,1.0,12.75,1561520087.0
nome,US,30.04,-94.42,http://api.openweathermap.org/data/2.5/weather?appid=fe26e61e3773caebdade519f9d254704&units=imperial&q=nome,United States,73.4,88.0,1.0,7.43,1561520087.0
ewa beach,US,21.32,-158.01,http://api.openweathermap.org/data/2.5/weather?appid=fe26e61e3773caebdade519f9d254704&units=imperial&q=ewa beach,United States,77.0,100.0,90.0,5.82,1561520087.0
fallon,US,46.84,-105.12,http://api.openweathermap.org/data/2.5/weather?appid=fe26e61e3773caebdade519f9d254704&units=imperial&q=fallon,United States,66.2,52.0,1.0,8.05,1561520087.0
lumberton,US,30.27,-94.2,http://api.openweathermap.org/data/2.5/weather?appid=fe26e61e3773caebdade519f9d254704&units=imperial&q=lumberton,United States,73.4,88.0,1.0,3.02,1561520087.0
barrow,US,-38.31,-60.23,http://api.openweathermap.org/data/2.5/weather?appid=fe26e61e3773caebdade519f9d254704&units=imperial&q=barrow,United States,38.42,61.0,0.0,8.21,1561520082.0
susanville,US,40.42,-120.65,http://api.openweathermap.org/data/2.5/weather?appid=fe26e61e3773caebdade519f9d254704&units=imperial&q=susanville,United States,69.8,44.0,1.0,12.75,1561520087.0
green river,US,41.53,-109.47,http://api.openweathermap.org/data/2.5/weather?appid=fe26e61e3773caebdade519f9d254704&units=imperial&q=green river,United States,66.99,24.0,40.0,11.41,1561520088.0
altamont,US,49.4,-98.5,http://api.openweathermap.org/data/2.5/weather?appid=fe26e61e3773caebdade519f9d254704&units=imperial&q=altamont,United States,68.0,64.0,1.0,3.36,1561520088.0
ketchikan,US,55.34,-131.65,http://api.openweathermap.org/data/2.5/weather?appid=fe26e61e3773caebdade519f9d254704&units=imperial&q=ketchikan,United States,69.8,63.0,1.0,14.99,1561519984.0
half moon bay,US,37.46,-122.43,http://api.openweathermap.org/data/2.5/weather?appid=fe26e61e3773caebdade519f9d254704&units=imperial&q=half moon bay,United States,69.8,87.0,20.0,8.05,1561520088.0
albertville,US,45.68,6.39,http://api.openweathermap.org/data/2.5/weather?appid=fe26e61e3773caebdade519f9d254704&units=imperial&q=albertville,United States,70.0,93.0,0.0,4.7,1561520088.0
pineville,US,31.32,-92.43,http://api.openweathermap.org/data/2.5/weather?appid=fe26e61e3773caebdade519f9d254704&units=imperial&q=pineville,United States,73.99,94.0,1.0,8.32,1561520088.0
grand island,US,40.92,-98.34,http://api.openweathermap.org/data/2.5/weather?appid=fe26e61e3773caebdade519f9d254704&units=imperial&q=grand island,United States,70.0,88.0,1.0,6.93,1561520089.0
college station,US,30.63,-96.33,http://api.openweathermap.org/data/2.5/weather?appid=fe26e61e3773caebdade519f9d254704&units=imperial&q=college station,United States,75.99,83.0,1.0,4.7,1561519879.0
ahuimanu,US,21.44,-157.84,http://api.openweathermap.org/data/2.5/weather?appid=fe26e61e3773caebdade519f9d254704&units=imperial&q=ahuimanu,United States,77.0,94.0,90.0,3.42,1561520089.0
pacific grove,US,36.62,-121.92,http://api.openweathermap.org/data/2.5/weather?appid=fe26e61e3773caebdade519f9d254704&units=imperial&q=pacific grove,United States,72.0,67.0,1.0,8.05,1561520089.0
fairbanks,US,64.84,-147.72,http://api.openweathermap.org/data/2.5/weather?appid=fe26e61e3773caebdade519f9d254704&units=imperial&q=fairbanks,United States,75.2,25.0,40.0,5.82,1561520089.0
glendive,US,47.11,-104.71,http://api.openweathermap.org/data/2.5/weather?appid=fe26e61e3773caebdade519f9d254704&units=imperial&q=glendive,United States,66.2,52.0,1.0,8.05,1561519984.0
honolulu,US,21.3,-157.86,http://api.openweathermap.org/data/2.5/weather?appid=fe26e61e3773caebdade519f9d254704&units=imperial&q=honolulu,United States,77.0,94.0,90.0,3.42,1561519864.0
bar harbor,US,44.39,-68.2,http://api.openweathermap.org/data/2.5/weather?appid=fe26e61e3773caebdade519f9d254704&units=imperial&q=bar harbor,United States,57.99,82.0,90.0,10.29,1561519803.0
ukiah,US,39.15,-123.21,http://api.openweathermap.org/data/2.5/weather?appid=fe26e61e3773caebdade519f9d254704&units=imperial&q=ukiah,United States,72.0,18.0,1.0,13.87,1561520069.0
carbondale,US,38.82,-95.69,http://api.openweathermap.org/data/2.5/weather?appid=fe26e61e3773caebdade519f9d254704&units=imperial&q=carbondale,United States,78.8,73.0,1.0,6.93,1561520090.0
makakilo city,US,21.35,-158.09,http://api.openweathermap.org/data/2.5/weather?appid=fe26e61e3773caebdade519f9d254704&units=imperial&q=makakilo city,United States,77.0,100.0,90.0,5.82,1561520090.0
north myrtle beach,US,33.83,-78.68,http://api.openweathermap.org/data/2.5/weather?appid=fe26e61e3773caebdade519f9d254704&units=imperial&q=north myrtle beach,United States,82.4,78.0,20.0,1.1,1561520090.0
wichita falls,US,33.91,-98.49,http://api.openweathermap.org/data/2.5/weather?appid=fe26e61e3773caebdade519f9d254704&units=imperial&q=wichita falls,United States,81.0,74.0,1.0,8.05,1561520090.0
kenai,US,60.55,-151.26,http://api.openweathermap.org/data/2.5/weather?appid=fe26e61e3773caebdade519f9d254704&units=imperial&q=kenai,United States,64.0,71.0,1.0,14.99,1561519987.0
vernon,US,50.27,-119.27,http://api.openweathermap.org/data/2.5/weather?appid=fe26e61e3773caebdade519f9d254704&units=imperial&q=vernon,United States,64.99,55.0,90.0,2.24,1561519791.0
indiana,US,40.62,-79.15,http://api.openweathermap.org/data/2.5/weather?appid=fe26e61e3773caebdade519f9d254704&units=imperial&q=indiana,United States,69.01,82.0,1.0,3.91,1561520087.0
brownsville,US,25.91,-97.49,http://api.openweathermap.org/data/2.5/weather?appid=fe26e61e3773caebdade519f9d254704&units=imperial&q=brownsville,United States,82.4,88.0,1.0,10.29,1561520091.0
iwanai,JP,42.97,140.51,http://api.openweathermap.org/data/2.5/weather?appid=fe26e61e3773caebdade519f9d254704&units=imperial&q=iwanai,Japan,67.22,73.0,55.0,7.31,1561520091.0
ishinomaki,JP,38.42,141.3,http://api.openweathermap.org/data/2.5/weather?appid=fe26e61e3773caebdade519f9d254704&units=imperial&q=ishinomaki,Japan,73.4,73.0,40.0,11.41,1561520091.0
nemuro,JP,43.32,145.57,http://api.openweathermap.org/data/2.5/weather?appid=fe26e61e3773caebdade519f9d254704&units=imperial&q=nemuro,Japan,82.4,45.0,40.0,10.29,1561520091.0
hirara,JP,24.8,125.28,http://api.openweathermap.org/data/2.5/weather?appid=fe26e61e3773caebdade519f9d254704&units=imperial&q=hirara,Japan,86.0,74.0,40.0,5.82,1561520092.0
hasaki,JP,35.73,140.83,http://api.openweathermap.org/data/2.5/weather?appid=fe26e61e3773caebdade519f9d254704&units=imperial&q=hasaki,Japan,90.0,69.0,40.0,11.41,1561520092.0
yomitan,JP,,,http://api.openweathermap.org/data/2.5/weather?appid=fe26e61e3773caebdade519f9d254704&units=imperial&q=yomitan,Japan,,,,,
katsuura,JP,33.93,134.5,http://api.openweathermap.org/data/2.5/weather?appid=fe26e61e3773caebdade519f9d254704&units=imperial&q=katsuura,Japan,82.4,83.0,75.0,18.34,1561520092.0
naze,JP,5.43,7.07,http://api.openweathermap.org/data/2.5/weather?appid=fe26e61e3773caebdade519f9d254704&units=imperial&q=naze,Japan,72.08,96.0,100.0,2.33,1561520092.0
punta arenas,CL,-53.16,-70.91,http://api.openweathermap.org/data/2.5/weather?appid=fe26e61e3773caebdade519f9d254704&units=imperial&q=punta arenas,Chile,32.0,96.0,90.0,4.7,1561520092.0
coquimbo,CL,-29.95,-71.34,http://api.openweathermap.org/data/2.5/weather?appid=fe26e61e3773caebdade519f9d254704&units=imperial&q=coquimbo,Chile,48.2,76.0,0.0,9.17,1561520092.0
lebu,CL,8.96,38.73,http://api.openweathermap.org/data/2.5/weather?appid=fe26e61e3773caebdade519f9d254704&units=imperial&q=lebu,Chile,57.2,82.0,40.0,2.71,1561520093.0
castro,CL,-42.48,-73.76,http://api.openweathermap.org/data/2.5/weather?appid=fe26e61e3773caebdade519f9d254704&units=imperial&q=castro,Chile,48.2,93.0,90.0,10.29,1561520093.0
coihaique,CL,-45.58,-72.07,http://api.openweathermap.org/data/2.5/weather?appid=fe26e61e3773caebdade519f9d254704&units=imperial&q=coihaique,Chile,37.4,93.0,75.0,2.24,1561520093.0
ancud,CL,-41.87,-73.83,http://api.openweathermap.org/data/2.5/weather?appid=fe26e61e3773caebdade519f9d254704&units=imperial&q=ancud,Chile,48.2,93.0,90.0,10.29,1561520093.0
taltal,CL,-25.41,-70.49,http://api.openweathermap.org/data/2.5/weather?appid=fe26e61e3773caebdade519f9d254704&units=imperial&q=taltal,Chile,46.7,94.0,8.0,0.56,1561520093.0
antofagasta,CL,-23.65,-70.4,http://api.openweathermap.org/data/2.5/weather?appid=fe26e61e3773caebdade519f9d254704&units=imperial&q=antofagasta,Chile,55.4,87.0,40.0,10.29,1561520094.0
sao francisco,BR,-25.65,-53.85,http://api.openweathermap.org/data/2.5/weather?appid=fe26e61e3773caebdade519f9d254704&units=imperial&q=sao francisco,Brazil,57.2,100.0,90.0,13.87,1561520094.0
arraial do cabo,BR,-22.97,-42.02,http://api.openweathermap.org/data/2.5/weather?appid=fe26e61e3773caebdade519f9d254704&units=imperial&q=arraial do cabo,Brazil,73.7,79.0,0.0,9.95,1561520094.0
urucara,BR,-2.54,-57.76,http://api.openweathermap.org/data/2.5/weather?appid=fe26e61e3773caebdade519f9d254704&units=imperial&q=urucara,Brazil,73.16,96.0,82.0,1.92,1561520094.0
sao jose de piranhas,BR,-7.12,-38.5,http://api.openweathermap.org/data/2.5/weather?appid=fe26e61e3773caebdade519f9d254704&units=imperial&q=sao jose de piranhas,Brazil,68.12,75.0,79.0,3.76,1561520094.0
cidreira,BR,-30.17,-50.22,http://api.openweathermap.org/data/2.5/weather?appid=fe26e61e3773caebdade519f9d254704&units=imperial&q=cidreira,Brazil,51.56,81.0,100.0,14.92,1561520094.0
paracatu,BR,-17.22,-46.87,http://api.openweathermap.org/data/2.5/weather?appid=fe26e61e3773caebdade519f9d254704&units=imperial&q=paracatu,Brazil,65.96,66.0,0.0,0.78,1561519999.0
touros,BR,-5.2,-35.46,http://api.openweathermap.org/data/2.5/weather?appid=fe26e61e3773caebdade519f9d254704&units=imperial&q=touros,Brazil,73.4,88.0,40.0,3.36,1561520095.0
monte alegre,BR,-2.0,-54.07,http://api.openweathermap.org/data/2.5/weather?appid=fe26e61e3773caebdade519f9d254704&units=imperial&q=monte alegre,Brazil,72.98,97.0,50.0,3.0,1561520095.0
alenquer,BR,-1.95,-54.74,http://api.openweathermap.org/data/2.5/weather?appid=fe26e61e3773caebdade519f9d254704&units=imperial&q=alenquer,Brazil,75.2,94.0,0.0,2.24,1561520095.0
rio grande,BR,-32.03,-52.1,http://api.openweathermap.org/data/2.5/weather?appid=fe26e61e3773caebdade519f9d254704&units=imperial&q=rio grande,Brazil,43.82,73.0,100.0,6.98,1561520095.0
itagiba,BR,-29.52,-50.57,http://api.openweathermap.org/data/2.5/weather?appid=fe26e61e3773caebdade519f9d254704&units=imperial&q=itagiba,Brazil,53.01,91.0,100.0,5.01,1561520096.0
caceres,BR,5.53,-74.53,http://api.openweathermap.org/data/2.5/weather?appid=fe26e61e3773caebdade519f9d254704&units=imperial&q=caceres,Brazil,66.68,95.0,100.0,3.91,1561520096.0
belmonte,BR,40.36,-7.35,http://api.openweathermap.org/data/2.5/weather?appid=fe26e61e3773caebdade519f9d254704&units=imperial&q=belmonte,Brazil,60.01,93.0,0.0,1.01,1561520096.0
caravelas,BR,-17.73,-39.27,http://api.openweathermap.org/data/2.5/weather?appid=fe26e61e3773caebdade519f9d254704&units=imperial&q=caravelas,Brazil,70.28,87.0,0.0,6.69,1561520096.0
sao joao da barra,BR,-21.64,-41.05,http://api.openweathermap.org/data/2.5/weather?appid=fe26e61e3773caebdade519f9d254704&units=imperial&q=sao joao da barra,Brazil,68.84,88.0,3.0,2.44,1561520096.0
olinda,BR,-2.03,-79.75,http://api.openweathermap.org/data/2.5/weather?appid=fe26e61e3773caebdade519f9d254704&units=imperial&q=olinda,Brazil,75.2,78.0,0.0,10.29,1561520096.0
trairi,BR,-3.28,-39.27,http://api.openweathermap.org/data/2.5/weather?appid=fe26e61e3773caebdade519f9d254704&units=imperial&q=trairi,Brazil,70.46,94.0,0.0,4.7,1561520097.0
sao joao de pirabas,BR,-0.77,-47.18,http://api.openweathermap.org/data/2.5/weather?appid=fe26e61e3773caebdade519f9d254704&units=imperial&q=sao joao de pirabas,Brazil,72.62,99.0,30.0,3.22,1561520097.0
maracaju,BR,-21.61,-55.17,http://api.openweathermap.org/data/2.5/weather?appid=fe26e61e3773caebdade519f9d254704&units=imperial&q=maracaju,Brazil,72.98,48.0,78.0,9.55,1561520097.0
jardim,BR,-21.48,-56.15,http://api.openweathermap.org/data/2.5/weather?appid=fe26e61e3773caebdade519f9d254704&units=imperial&q=jardim,Brazil,68.12,87.0,100.0,6.2,1561520097.0
laguna,BR,27.52,-110.01,http://api.openweathermap.org/data/2.5/weather?appid=fe26e61e3773caebdade519f9d254704&units=imperial&q=laguna,Brazil,83.06,53.0,0.0,4.88,1561520097.0
pocinhos,BR,-7.08,-36.06,http://api.openweathermap.org/data/2.5/weather?appid=fe26e61e3773caebdade519f9d254704&units=imperial&q=pocinhos,Brazil,68.0,88.0,20.0,12.75,1561520098.0
camocim,BR,-2.9,-40.84,http://api.openweathermap.org/data/2.5/weather?appid=fe26e61e3773caebdade519f9d254704&units=imperial&q=camocim,Brazil,71.36,94.0,0.0,5.97,1561520098.0
bonfim,BR,3.36,-59.84,http://api.openweathermap.org/data/2.5/weather?appid=fe26e61e3773caebdade519f9d254704&units=imperial&q=bonfim,Brazil,77.3,81.0,39.0,8.55,1561520098.0
urbano santos,BR,-3.2,-43.39,http://api.openweathermap.org/data/2.5/weather?appid=fe26e61e3773caebdade519f9d254704&units=imperial&q=urbano santos,Brazil,72.08,96.0,0.0,1.81,1561520101.0
ariquemes,BR,-9.91,-63.03,http://api.openweathermap.org/data/2.5/weather?appid=fe26e61e3773caebdade519f9d254704&units=imperial&q=ariquemes,Brazil,73.34,74.0,40.0,0.49,1561520101.0
boa vista,BR,2.82,-60.67,http://api.openweathermap.org/data/2.5/weather?appid=fe26e61e3773caebdade519f9d254704&units=imperial&q=boa vista,Brazil,75.2,88.0,0.0,4.7,1561520102.0
carutapera,BR,-1.2,-46.02,http://api.openweathermap.org/data/2.5/weather?appid=fe26e61e3773caebdade519f9d254704&units=imperial&q=carutapera,Brazil,76.04,91.0,14.0,4.88,1561520102.0
piacabucu,BR,-10.41,-36.43,http://api.openweathermap.org/data/2.5/weather?appid=fe26e61e3773caebdade519f9d254704&units=imperial&q=piacabucu,Brazil,73.88,87.0,100.0,5.37,1561520103.0
rawannawi,KI,,,http://api.openweathermap.org/data/2.5/weather?appid=fe26e61e3773caebdade519f9d254704&units=imperial&q=rawannawi,Kiribati,,,,,
butaritari,KI,3.07,172.79,http://api.openweathermap.org/data/2.5/weather?appid=fe26e61e3773caebdade519f9d254704&units=imperial&q=butaritari,Kiribati,84.32,69.0,100.0,8.21,1561520103.0
buariki,KI,,,http://api.openweathermap.org/data/2.5/weather?appid=fe26e61e3773caebdade519f9d254704&units=imperial&q=buariki,Kiribati,,,,,
avarua,CK,-21.21,-159.78,http://api.openweathermap.org/data/2.5/weather?appid=fe26e61e3773caebdade519f9d254704&units=imperial&q=avarua,Cook Islands,75.2,73.0,32.0,12.75,1561519818.0
barentsburg,SJ,,,http://api.openweathermap.org/data/2.5/weather?appid=fe26e61e3773caebdade519f9d254704&units=imperial&q=barentsburg,Svalbard and Jan Mayen,,,,,
longyearbyen,SJ,78.22,15.63,http://api.openweathermap.org/data/2.5/weather?appid=fe26e61e3773caebdade519f9d254704&units=imperial&q=longyearbyen,Svalbard and Jan Mayen,41.0,75.0,75.0,9.17,1561520103.0
labuhan,ID,-2.54,115.51,http://api.openweathermap.org/data/2.5/weather?appid=fe26e61e3773caebdade519f9d254704&units=imperial&q=labuhan,Indonesia,88.64,56.0,0.0,2.17,1561520103.0
bengkulu,ID,,,http://api.openweathermap.org/data/2.5/weather?appid=fe26e61e3773caebdade519f9d254704&units=imperial&q=bengkulu,Indonesia,,,,,
ambon,ID,47.55,-2.56,http://api.openweathermap.org/data/2.5/weather?appid=fe26e61e3773caebdade519f9d254704&units=imperial&q=ambon,Indonesia,64.99,93.0,100.0,10.29,1561520099.0
waingapu,ID,-9.65,120.26,http://api.openweathermap.org/data/2.5/weather?appid=fe26e61e3773caebdade519f9d254704&units=imperial&q=waingapu,Indonesia,78.02,61.0,4.0,17.13,1561520107.0
sorong,ID,-0.86,131.25,http://api.openweathermap.org/data/2.5/weather?appid=fe26e61e3773caebdade519f9d254704&units=imperial&q=sorong,Indonesia,78.92,86.0,100.0,10.42,1561520107.0
srandakan,ID,-7.94,110.25,http://api.openweathermap.org/data/2.5/weather?appid=fe26e61e3773caebdade519f9d254704&units=imperial&q=srandakan,Indonesia,74.6,82.0,0.0,4.61,1561520107.0
indramayu,ID,-4.05,103.78,http://api.openweathermap.org/data/2.5/weather?appid=fe26e61e3773caebdade519f9d254704&units=imperial&q=indramayu,Indonesia,78.92,51.0,0.0,3.47,1561520107.0
kendari,ID,-3.99,122.52,http://api.openweathermap.org/data/2.5/weather?appid=fe26e61e3773caebdade519f9d254704&units=imperial&q=kendari,Indonesia,85.04,62.0,31.0,1.14,1561520107.0
bima,ID,-8.45,118.73,http://api.openweathermap.org/data/2.5/weather?appid=fe26e61e3773caebdade519f9d254704&units=imperial&q=bima,Indonesia,83.6,47.0,1.0,4.59,1561520107.0
pringsewu,ID,-5.36,104.98,http://api.openweathermap.org/data/2.5/weather?appid=fe26e61e3773caebdade519f9d254704&units=imperial&q=pringsewu,Indonesia,84.86,51.0,0.0,2.53,1561520108.0
kualakapuas,ID,-3.01,114.39,http://api.openweathermap.org/data/2.5/weather?appid=fe26e61e3773caebdade519f9d254704&units=imperial&q=kualakapuas,Indonesia,87.8,62.0,0.0,10.29,1561520108.0
sampit,ID,-2.54,112.95,http://api.openweathermap.org/data/2.5/weather?appid=fe26e61e3773caebdade519f9d254704&units=imperial&q=sampit,Indonesia,87.02,62.0,22.0,4.5,1561520108.0
singaraja,ID,-8.11,115.08,http://api.openweathermap.org/data/2.5/weather?appid=fe26e61e3773caebdade519f9d254704&units=imperial&q=singaraja,Indonesia,79.28,72.0,0.0,5.12,1561520108.0
banjarmasin,ID,-3.32,114.59,http://api.openweathermap.org/data/2.5/weather?appid=fe26e61e3773caebdade519f9d254704&units=imperial&q=banjarmasin,Indonesia,87.8,62.0,22.0,10.29,1561520108.0
tidore,ID,,,http://api.openweathermap.org/data/2.5/weather?appid=fe26e61e3773caebdade519f9d254704&units=imperial&q=tidore,Indonesia,,,,,
amahai,ID,-3.31,129.0,http://api.openweathermap.org/data/2.5/weather?appid=fe26e61e3773caebdade519f9d254704&units=imperial&q=amahai,Indonesia,79.28,82.0,74.0,14.38,1561520109.0
palabuhanratu,ID,,,http://api.openweathermap.org/data/2.5/weather?appid=fe26e61e3773caebdade519f9d254704&units=imperial&q=palabuhanratu,Indonesia,,,,,
kupang,ID,-10.16,123.6,http://api.openweathermap.org/data/2.5/weather?appid=fe26e61e3773caebdade519f9d254704&units=imperial&q=kupang,Indonesia,87.8,33.0,20.0,20.8,1561520109.0
ternate,ID,14.29,120.72,http://api.openweathermap.org/data/2.5/weather?appid=fe26e61e3773caebdade519f9d254704&units=imperial&q=ternate,Indonesia,91.4,63.0,75.0,9.17,1561520109.0
sungairaya,ID,0.7,108.9,http://api.openweathermap.org/data/2.5/weather?appid=fe26e61e3773caebdade519f9d254704&units=imperial&q=sungairaya,Indonesia,82.7,82.0,2.0,13.98,1561520109.0
sumbawa,ID,,,http://api.openweathermap.org/data/2.5/weather?appid=fe26e61e3773caebdade519f9d254704&units=imperial&q=sumbawa,Indonesia,,,,,
gorontalo,ID,0.54,123.06,http://api.openweathermap.org/data/2.5/weather?appid=fe26e61e3773caebdade519f9d254704&units=imperial&q=gorontalo,Indonesia,83.96,68.0,100.0,12.88,1561520109.0
biak,ID,-0.91,122.88,http://api.openweathermap.org/data/2.5/weather?appid=fe26e61e3773caebdade519f9d254704&units=imperial&q=biak,Indonesia,69.02,88.0,96.0,5.3,1561520109.0
sorland,NO,67.67,12.69,http://api.openweathermap.org/data/2.5/weather?appid=fe26e61e3773caebdade519f9d254704&units=imperial&q=sorland,Norway,47.96,88.0,96.0,15.79,1561520110.0
vardo,NO,39.62,-77.74,http://api.openweathermap.org/data/2.5/weather?appid=fe26e61e3773caebdade519f9d254704&units=imperial&q=vardo,Norway,73.99,83.0,1.0,4.36,1561520110.0
havoysund,NO,71.0,24.66,http://api.openweathermap.org/data/2.5/weather?appid=fe26e61e3773caebdade519f9d254704&units=imperial&q=havoysund,Norway,46.4,87.0,75.0,27.51,1561520110.0
nesna,NO,66.2,13.02,http://api.openweathermap.org/data/2.5/weather?appid=fe26e61e3773caebdade519f9d254704&units=imperial&q=nesna,Norway,48.0,70.0,93.0,1.01,1561520110.0
sistranda,NO,63.73,8.83,http://api.openweathermap.org/data/2.5/weather?appid=fe26e61e3773caebdade519f9d254704&units=imperial&q=sistranda,Norway,50.0,76.0,75.0,5.82,1561520111.0
mehamn,NO,71.03,27.85,http://api.openweathermap.org/data/2.5/weather?appid=fe26e61e3773caebdade519f9d254704&units=imperial&q=mehamn,Norway,48.2,81.0,75.0,17.22,1561520111.0
skjervoy,NO,70.03,20.97,http://api.openweathermap.org/data/2.5/weather?appid=fe26e61e3773caebdade519f9d254704&units=imperial&q=skjervoy,Norway,48.14,80.0,100.0,10.33,1561520111.0
bud,NO,62.91,6.91,http://api.openweathermap.org/data/2.5/weather?appid=fe26e61e3773caebdade519f9d254704&units=imperial&q=bud,Norway,53.01,81.0,76.0,8.05,1561520111.0
groa,NO,48.67,-4.14,http://api.openweathermap.org/data/2.5/weather?appid=fe26e61e3773caebdade519f9d254704&units=imperial&q=groa,Norway,61.0,100.0,33.0,3.36,1561520112.0
zhangye,CN,38.94,100.46,http://api.openweathermap.org/data/2.5/weather?appid=fe26e61e3773caebdade519f9d254704&units=imperial&q=zhangye,China,64.16,47.0,100.0,3.94,1561520112.0
altay,CN,47.83,88.13,http://api.openweathermap.org/data/2.5/weather?appid=fe26e61e3773caebdade519f9d254704&units=imperial&q=altay,China,54.08,42.0,0.0,0.92,1561520113.0
yakeshi,CN,49.28,120.73,http://api.openweathermap.org/data/2.5/weather?appid=fe26e61e3773caebdade519f9d254704&units=imperial&q=yakeshi,China,66.14,74.0,100.0,19.77,1561520113.0
tongren,CN,27.72,109.18,http://api.openweathermap.org/data/2.5/weather?appid=fe26e61e3773caebdade519f9d254704&units=imperial&q=tongren,China,81.62,67.0,32.0,3.31,1561520113.0
dafeng,CN,33.2,120.46,http://api.openweathermap.org/data/2.5/weather?appid=fe26e61e3773caebdade519f9d254704&units=imperial&q=dafeng,China,75.5,71.0,100.0,6.6,1561520113.0
nangong,CN,37.36,115.37,http://api.openweathermap.org/data/2.5/weather?appid=fe26e61e3773caebdade519f9d254704&units=imperial&q=nangong,China,92.96,28.0,76.0,7.34,1561520114.0
pingzhuang,CN,,,http://api.openweathermap.org/data/2.5/weather?appid=fe26e61e3773caebdade519f9d254704&units=imperial&q=pingzhuang,China,,,,,
wuchang,CN,44.93,127.16,http://api.openweathermap.org/data/2.5/weather?appid=fe26e61e3773caebdade519f9d254704&units=imperial&q=wuchang,China,80.54,47.0,15.0,19.04,1561520114.0
dengfeng,CN,34.46,113.03,http://api.openweathermap.org/data/2.5/weather?appid=fe26e61e3773caebdade519f9d254704&units=imperial&q=dengfeng,China,84.14,37.0,0.0,4.07,1561520114.0
luan,CN,46.36,6.98,http://api.openweathermap.org/data/2.5/weather?appid=fe26e61e3773caebdade519f9d254704&units=imperial&q=luan,China,73.0,64.0,0.0,2.24,1561520114.0
hami,CN,42.84,93.51,http://api.openweathermap.org/data/2.5/weather?appid=fe26e61e3773caebdade519f9d254704&units=imperial&q=hami,China,77.48,24.0,75.0,8.03,1561520114.0
ninghai,CN,29.29,121.42,http://api.openweathermap.org/data/2.5/weather?appid=fe26e61e3773caebdade519f9d254704&units=imperial&q=ninghai,China,82.99,100.0,90.0,4.47,1561520115.0
tongzi,CN,28.78,105.09,http://api.openweathermap.org/data/2.5/weather?appid=fe26e61e3773caebdade519f9d254704&units=imperial&q=tongzi,China,72.98,93.0,100.0,3.11,1561520118.0
beidao,CN,34.57,105.89,http://api.openweathermap.org/data/2.5/weather?appid=fe26e61e3773caebdade519f9d254704&units=imperial&q=beidao,China,71.36,66.0,94.0,12.73,1561520118.0
hailar,CN,49.2,119.7,http://api.openweathermap.org/data/2.5/weather?appid=fe26e61e3773caebdade519f9d254704&units=imperial&q=hailar,China,70.1,72.0,95.0,20.49,1561520118.0
yumen,CN,40.29,97.04,http://api.openweathermap.org/data/2.5/weather?appid=fe26e61e3773caebdade519f9d254704&units=imperial&q=yumen,China,73.7,27.0,100.0,9.84,1561520118.0
xichang,CN,27.88,102.25,http://api.openweathermap.org/data/2.5/weather?appid=fe26e61e3773caebdade519f9d254704&units=imperial&q=xichang,China,61.82,87.0,100.0,1.5,1561520118.0
shache,CN,38.42,77.24,http://api.openweathermap.org/data/2.5/weather?appid=fe26e61e3773caebdade519f9d254704&units=imperial&q=shache,China,70.0,90.0,0.0,5.5,1561520119.0
lanzhou,CN,36.06,103.82,http://api.openweathermap.org/data/2.5/weather?appid=fe26e61e3773caebdade519f9d254704&units=imperial&q=lanzhou,China,59.0,93.0,90.0,4.47,1561520119.0
lasa,CN,34.92,32.53,http://api.openweathermap.org/data/2.5/weather?appid=fe26e61e3773caebdade519f9d254704&units=imperial&q=lasa,China,77.0,68.0,0.0,3.36,1561520119.0
chifeng,CN,42.27,118.96,http://api.openweathermap.org/data/2.5/weather?appid=fe26e61e3773caebdade519f9d254704&units=imperial&q=chifeng,China,76.04,43.0,100.0,11.48,1561519983.0
zhuanghe,CN,39.7,122.97,http://api.openweathermap.org/data/2.5/weather?appid=fe26e61e3773caebdade519f9d254704&units=imperial&q=zhuanghe,China,79.28,48.0,99.0,13.98,1561520119.0
dongsheng,CN,29.72,112.52,http://api.openweathermap.org/data/2.5/weather?appid=fe26e61e3773caebdade519f9d254704&units=imperial&q=dongsheng,China,84.32,61.0,2.0,4.94,1561520119.0
zhengjiatun,CN,43.51,123.51,http://api.openweathermap.org/data/2.5/weather?appid=fe26e61e3773caebdade519f9d254704&units=imperial&q=zhengjiatun,China,83.6,41.0,83.0,21.94,1561520120.0
korla,CN,,,http://api.openweathermap.org/data/2.5/weather?appid=fe26e61e3773caebdade519f9d254704&units=imperial&q=korla,China,,,,,
bhadrachalam,IN,17.67,80.89,http://api.openweathermap.org/data/2.5/weather?appid=fe26e61e3773caebdade519f9d254704&units=imperial&q=bhadrachalam,India,88.28,61.0,0.0,5.57,1561520120.0
daosa,IN,,,http://api.openweathermap.org/data/2.5/weather?appid=fe26e61e3773caebdade519f9d254704&units=imperial&q=daosa,India,,,,,
port blair,IN,11.67,92.75,http://api.openweathermap.org/data/2.5/weather?appid=fe26e61e3773caebdade519f9d254704&units=imperial&q=port blair,India,77.0,94.0,90.0,5.82,1561520088.0
kollam,IN,8.88,76.6,http://api.openweathermap.org/data/2.5/weather?appid=fe26e61e3773caebdade519f9d254704&units=imperial&q=kollam,India,84.2,83.0,75.0,5.82,1561520120.0
kavaratti,IN,10.57,72.64,http://api.openweathermap.org/data/2.5/weather?appid=fe26e61e3773caebdade519f9d254704&units=imperial&q=kavaratti,India,84.2,79.0,40.0,6.93,1561520121.0
madras,IN,44.63,-121.13,http://api.openweathermap.org/data/2.5/weather?appid=fe26e61e3773caebdade519f9d254704&units=imperial&q=madras,India,66.2,62.0,1.0,8.05,1561520121.0
naliya,IN,23.26,68.83,http://api.openweathermap.org/data/2.5/weather?appid=fe26e61e3773caebdade519f9d254704&units=imperial&q=naliya,India,84.68,80.0,77.0,12.3,1561520121.0
asifabad,IN,19.38,79.29,http://api.openweathermap.org/data/2.5/weather?appid=fe26e61e3773caebdade519f9d254704&units=imperial&q=asifabad,India,88.64,57.0,0.0,8.52,1561520121.0
gangotri,IN,,,http://api.openweathermap.org/data/2.5/weather?appid=fe26e61e3773caebdade519f9d254704&units=imperial&q=gangotri,India,,,,,
harda,IN,22.34,77.09,http://api.openweathermap.org/data/2.5/weather?appid=fe26e61e3773caebdade519f9d254704&units=imperial&q=harda,India,88.64,58.0,0.0,6.24,1561520121.0
ramnagar,IN,27.17,84.33,http://api.openweathermap.org/data/2.5/weather?appid=fe26e61e3773caebdade519f9d254704&units=imperial&q=ramnagar,India,92.96,56.0,40.0,6.11,1561520121.0
tharad,IN,24.39,71.63,http://api.openweathermap.org/data/2.5/weather?appid=fe26e61e3773caebdade519f9d254704&units=imperial&q=tharad,India,86.84,69.0,99.0,9.82,1561520122.0
ghatsila,IN,22.65,86.41,http://api.openweathermap.org/data/2.5/weather?appid=fe26e61e3773caebdade519f9d254704&units=imperial&q=ghatsila,India,89.6,66.0,40.0,6.93,1561520122.0
leh,IN,34.16,77.58,http://api.openweathermap.org/data/2.5/weather?appid=fe26e61e3773caebdade519f9d254704&units=imperial&q=leh,India,34.1,57.0,0.0,4.12,1561519935.0
dalkola,IN,25.88,87.84,http://api.openweathermap.org/data/2.5/weather?appid=fe26e61e3773caebdade519f9d254704&units=imperial&q=dalkola,India,89.36,68.0,81.0,9.1,1561520122.0
mayor pablo lagerenza,PY,-19.93,-60.77,http://api.openweathermap.org/data/2.5/weather?appid=fe26e61e3773caebdade519f9d254704&units=imperial&q=mayor pablo lagerenza,Paraguay,53.72,55.0,72.0,12.08,1561520122.0
lorengau,PG,-2.02,147.27,http://api.openweathermap.org/data/2.5/weather?appid=fe26e61e3773caebdade519f9d254704&units=imperial&q=lorengau,Papua New Guinea,83.42,78.0,20.0,7.54,1561520122.0
namatanai,PG,-3.66,152.44,http://api.openweathermap.org/data/2.5/weather?appid=fe26e61e3773caebdade519f9d254704&units=imperial&q=namatanai,Papua New Guinea,80.54,81.0,100.0,15.39,1561520123.0
kavieng,PG,-2.57,150.8,http://api.openweathermap.org/data/2.5/weather?appid=fe26e61e3773caebdade519f9d254704&units=imperial&q=kavieng,Papua New Guinea,84.68,73.0,100.0,17.27,1561520123.0
port moresby,PG,-9.47,147.16,http://api.openweathermap.org/data/2.5/weather?appid=fe26e61e3773caebdade519f9d254704&units=imperial&q=port moresby,Papua New Guinea,80.6,83.0,75.0,18.34,1561520123.0
kieta,PG,-6.22,155.63,http://api.openweathermap.org/data/2.5/weather?appid=fe26e61e3773caebdade519f9d254704&units=imperial&q=kieta,Papua New Guinea,83.42,75.0,100.0,6.44,1561520123.0
kerema,PG,-7.96,145.78,http://api.openweathermap.org/data/2.5/weather?appid=fe26e61e3773caebdade519f9d254704&units=imperial&q=kerema,Papua New Guinea,79.82,83.0,98.0,15.86,1561520123.0
vanimo,PG,-2.67,141.3,http://api.openweathermap.org/data/2.5/weather?appid=fe26e61e3773caebdade519f9d254704&units=imperial&q=vanimo,Papua New Guinea,82.7,77.0,99.0,5.86,1561520123.0
samarai,PG,-10.62,150.67,http://api.openweathermap.org/data/2.5/weather?appid=fe26e61e3773caebdade519f9d254704&units=imperial&q=samarai,Papua New Guinea,75.86,94.0,100.0,6.4,1561520124.0
faya,TD,18.39,42.45,http://api.openweathermap.org/data/2.5/weather?appid=fe26e61e3773caebdade519f9d254704&units=imperial&q=faya,Chad,68.0,42.0,20.0,3.38,1561520124.0
adre,TD,13.47,22.2,http://api.openweathermap.org/data/2.5/weather?appid=fe26e61e3773caebdade519f9d254704&units=imperial&q=adre,Chad,72.98,76.0,81.0,19.64,1561520124.0
moussoro,TD,13.64,16.49,http://api.openweathermap.org/data/2.5/weather?appid=fe26e61e3773caebdade519f9d254704&units=imperial&q=moussoro,Chad,88.46,38.0,0.0,7.94,1561520124.0
ati,TD,13.21,18.34,http://api.openweathermap.org/data/2.5/weather?appid=fe26e61e3773caebdade519f9d254704&units=imperial&q=ati,Chad,87.56,42.0,37.0,19.53,1561520124.0
am timan,TD,11.04,20.28,http://api.openweathermap.org/data/2.5/weather?appid=fe26e61e3773caebdade519f9d254704&units=imperial&q=am timan,Chad,77.84,73.0,100.0,8.97,1561520124.0
sulangan,PH,11.14,123.72,http://api.openweathermap.org/data/2.5/weather?appid=fe26e61e3773caebdade519f9d254704&units=imperial&q=sulangan,Philippines,85.04,69.0,52.0,3.2,1561520125.0
tagusao,PH,9.19,117.81,http://api.openweathermap.org/data/2.5/weather?appid=fe26e61e3773caebdade519f9d254704&units=imperial&q=tagusao,Philippines,85.76,70.0,83.0,11.45,1561520125.0
cabugao,PH,11.38,122.75,http://api.openweathermap.org/data/2.5/weather?appid=fe26e61e3773caebdade519f9d254704&units=imperial&q=cabugao,Philippines,90.62,60.0,100.0,1.32,1561520125.0
basco,PH,40.33,-91.2,http://api.openweathermap.org/data/2.5/weather?appid=fe26e61e3773caebdade519f9d254704&units=imperial&q=basco,Philippines,70.0,93.0,40.0,12.75,1561520125.0
san policarpo,PH,12.18,125.51,http://api.openweathermap.org/data/2.5/weather?appid=fe26e61e3773caebdade519f9d254704&units=imperial&q=san policarpo,Philippines,86.48,67.0,96.0,5.99,1561520125.0
santa cruz,PH,36.97,-122.03,http://api.openweathermap.org/data/2.5/weather?appid=fe26e61e3773caebdade519f9d254704&units=imperial&q=santa cruz,Philippines,72.0,77.0,1.0,8.05,1561520108.0
tubajon,PH,10.33,125.56,http://api.openweathermap.org/data/2.5/weather?appid=fe26e61e3773caebdade519f9d254704&units=imperial&q=tubajon,Philippines,84.5,75.0,100.0,11.59,1561520127.0
tuburan,PH,10.73,123.82,http://api.openweathermap.org/data/2.5/weather?appid=fe26e61e3773caebdade519f9d254704&units=imperial&q=tuburan,Philippines,89.6,62.0,75.0,14.99,1561520127.0
palauig,PH,15.44,119.9,http://api.openweathermap.org/data/2.5/weather?appid=fe26e61e3773caebdade519f9d254704&units=imperial&q=palauig,Philippines,85.76,74.0,95.0,12.64,1561520127.0
bathsheba,BB,13.22,-59.52,http://api.openweathermap.org/data/2.5/weather?appid=fe26e61e3773caebdade519f9d254704&units=imperial&q=bathsheba,Barbados,80.6,74.0,0.0,21.92,1561520127.0
kristiinankaupunki,FI,,,http://api.openweathermap.org/data/2.5/weather?appid=fe26e61e3773caebdade519f9d254704&units=imperial&q=kristiinankaupunki,Finland,,,,,
villamontes,BO,-21.26,-63.47,http://api.openweathermap.org/data/2.5/weather?appid=fe26e61e3773caebdade519f9d254704&units=imperial&q=villamontes,"Bolivia, Plurinational State of",47.06,58.0,49.0,3.98,1561520128.0
patacamaya,BO,-17.23,-67.92,http://api.openweathermap.org/data/2.5/weather?appid=fe26e61e3773caebdade519f9d254704&units=imperial&q=patacamaya,"Bolivia, Plurinational State of",36.44,31.0,0.0,10.98,1561520128.0
arriaga,MX,16.24,-93.9,http://api.openweathermap.org/data/2.5/weather?appid=fe26e61e3773caebdade519f9d254704&units=imperial&q=arriaga,Mexico,69.56,92.0,100.0,1.95,1561520128.0
guerrero negro,MX,27.97,-114.04,http://api.openweathermap.org/data/2.5/weather?appid=fe26e61e3773caebdade519f9d254704&units=imperial&q=guerrero negro,Mexico,63.26,86.0,59.0,14.05,1561520128.0
cabo san lucas,MX,22.89,-109.91,http://api.openweathermap.org/data/2.5/weather?appid=fe26e61e3773caebdade519f9d254704&units=imperial&q=cabo san lucas,Mexico,82.4,42.0,5.0,5.82,1561519834.0
puerto escondido,MX,15.86,-97.07,http://api.openweathermap.org/data/2.5/weather?appid=fe26e61e3773caebdade519f9d254704&units=imperial&q=puerto escondido,Mexico,84.2,62.0,5.0,5.82,1561520128.0
caborca,MX,30.58,-111.1,http://api.openweathermap.org/data/2.5/weather?appid=fe26e61e3773caebdade519f9d254704&units=imperial&q=caborca,Mexico,84.0,22.0,0.0,1.01,1561520128.0
san patricio,MX,-26.98,-56.83,http://api.openweathermap.org/data/2.5/weather?appid=fe26e61e3773caebdade519f9d254704&units=imperial&q=san patricio,Mexico,45.26,82.0,100.0,7.11,1561520101.0
casas grandes,MX,30.15,-110.24,http://api.openweathermap.org/data/2.5/weather?appid=fe26e61e3773caebdade519f9d254704&units=imperial&q=casas grandes,Mexico,73.88,22.0,100.0,5.23,1561520129.0
tekax,MX,,,http://api.openweathermap.org/data/2.5/weather?appid=fe26e61e3773caebdade519f9d254704&units=imperial&q=tekax,Mexico,,,,,
reynosa,MX,26.07,-98.3,http://api.openweathermap.org/data/2.5/weather?appid=fe26e61e3773caebdade519f9d254704&units=imperial&q=reynosa,Mexico,81.0,74.0,90.0,13.87,1561519884.0
aguililla,MX,18.74,-102.79,http://api.openweathermap.org/data/2.5/weather?appid=fe26e61e3773caebdade519f9d254704&units=imperial&q=aguililla,Mexico,68.3,84.0,89.0,2.21,1561520129.0
coahuayana,MX,18.62,-100.35,http://api.openweathermap.org/data/2.5/weather?appid=fe26e61e3773caebdade519f9d254704&units=imperial&q=coahuayana,Mexico,76.76,79.0,67.0,0.29,1561520129.0
puerto madero,MX,-34.61,-58.36,http://api.openweathermap.org/data/2.5/weather?appid=fe26e61e3773caebdade519f9d254704&units=imperial&q=puerto madero,Mexico,46.99,45.0,0.0,4.7,1561520129.0
isla mujeres,MX,21.23,-86.73,http://api.openweathermap.org/data/2.5/weather?appid=fe26e61e3773caebdade519f9d254704&units=imperial&q=isla mujeres,Mexico,84.2,79.0,40.0,9.17,1561520130.0
illoqqortoormiut,GL,,,http://api.openweathermap.org/data/2.5/weather?appid=fe26e61e3773caebdade519f9d254704&units=imperial&q=illoqqortoormiut,Greenland,,,,,
upernavik,GL,72.79,-56.15,http://api.openweathermap.org/data/2.5/weather?appid=fe26e61e3773caebdade519f9d254704&units=imperial&q=upernavik,Greenland,32.84,88.0,100.0,8.3,1561520130.0
qaanaaq,GL,77.48,-69.36,http://api.openweathermap.org/data/2.5/weather?appid=fe26e61e3773caebdade519f9d254704&units=imperial&q=qaanaaq,Greenland,33.74,88.0,88.0,2.66,1561520130.0
paamiut,GL,61.99,-49.67,http://api.openweathermap.org/data/2.5/weather?appid=fe26e61e3773caebdade519f9d254704&units=imperial&q=paamiut,Greenland,39.86,99.0,100.0,5.82,1561520130.0
qasigiannguit,GL,68.82,-51.19,http://api.openweathermap.org/data/2.5/weather?appid=fe26e61e3773caebdade519f9d254704&units=imperial&q=qasigiannguit,Greenland,42.8,81.0,100.0,4.7,1561520130.0
maniitsoq,GL,65.42,-52.9,http://api.openweathermap.org/data/2.5/weather?appid=fe26e61e3773caebdade519f9d254704&units=imperial&q=maniitsoq,Greenland,45.44,84.0,98.0,3.6,1561520130.0
narsaq,GL,60.91,-46.05,http://api.openweathermap.org/data/2.5/weather?appid=fe26e61e3773caebdade519f9d254704&units=imperial&q=narsaq,Greenland,51.8,76.0,100.0,10.29,1561520131.0
sisimiut,GL,66.94,-53.67,http://api.openweathermap.org/data/2.5/weather?appid=fe26e61e3773caebdade519f9d254704&units=imperial&q=sisimiut,Greenland,41.48,85.0,100.0,8.72,1561520131.0
tasiilaq,GL,65.61,-37.64,http://api.openweathermap.org/data/2.5/weather?appid=fe26e61e3773caebdade519f9d254704&units=imperial&q=tasiilaq,Greenland,41.0,80.0,0.0,9.17,1561520131.0
qaqortoq,GL,60.72,-46.03,http://api.openweathermap.org/data/2.5/weather?appid=fe26e61e3773caebdade519f9d254704&units=imperial&q=qaqortoq,Greenland,51.8,76.0,100.0,10.29,1561520131.0
samusu,WS,,,http://api.openweathermap.org/data/2.5/weather?appid=fe26e61e3773caebdade519f9d254704&units=imperial&q=samusu,Samoa,,,,,
saleaula,WS,,,http://api.openweathermap.org/data/2.5/weather?appid=fe26e61e3773caebdade519f9d254704&units=imperial&q=saleaula,Samoa,,,,,
falealupo,WS,,,http://api.openweathermap.org/data/2.5/weather?appid=fe26e61e3773caebdade519f9d254704&units=imperial&q=falealupo,Samoa,,,,,
sorvag,FO,,,http://api.openweathermap.org/data/2.5/weather?appid=fe26e61e3773caebdade519f9d254704&units=imperial&q=sorvag,Faroe Islands,,,,,
klaksvik,FO,62.23,-6.59,http://api.openweathermap.org/data/2.5/weather?appid=fe26e61e3773caebdade519f9d254704&units=imperial&q=klaksvik,Faroe Islands,50.0,93.0,93.0,11.41,1561520134.0
vestmanna,FO,62.16,-7.17,http://api.openweathermap.org/data/2.5/weather?appid=fe26e61e3773caebdade519f9d254704&units=imperial&q=vestmanna,Faroe Islands,50.0,93.0,99.0,11.41,1561520135.0
fereydun kenar,IR,36.69,52.52,http://api.openweathermap.org/data/2.5/weather?appid=fe26e61e3773caebdade519f9d254704&units=imperial&q=fereydun kenar,"Iran, Islamic Republic of",80.6,83.0,75.0,4.7,1561520135.0
ashtian,IR,34.52,50.0,http://api.openweathermap.org/data/2.5/weather?appid=fe26e61e3773caebdade519f9d254704&units=imperial&q=ashtian,"Iran, Islamic Republic of",76.58,18.0,0.0,5.14,1561520135.0
taft,IR,11.9,125.42,http://api.openweathermap.org/data/2.5/weather?appid=fe26e61e3773caebdade519f9d254704&units=imperial&q=taft,"Iran, Islamic Republic of",84.86,72.0,100.0,4.99,1561520135.0
westport,IE,53.8,-9.52,http://api.openweathermap.org/data/2.5/weather?appid=fe26e61e3773caebdade519f9d254704&units=imperial&q=westport,Ireland,57.0,92.0,0.0,1.01,1561520135.0
dingle,IE,11.0,122.67,http://api.openweathermap.org/data/2.5/weather?appid=fe26e61e3773caebdade519f9d254704&units=imperial&q=dingle,Ireland,86.12,73.0,84.0,8.43,1561520136.0
ginda,ER,30.69,78.49,http://api.openweathermap.org/data/2.5/weather?appid=fe26e61e3773caebdade519f9d254704&units=imperial&q=ginda,Eritrea,70.1,63.0,0.0,2.77,1561520136.0
gunjur,GM,13.18,-16.76,http://api.openweathermap.org/data/2.5/weather?appid=fe26e61e3773caebdade519f9d254704&units=imperial&q=gunjur,Gambia,77.0,88.0,0.0,5.82,1561520136.0
mahebourg,MU,-20.41,57.7,http://api.openweathermap.org/data/2.5/weather?appid=fe26e61e3773caebdade519f9d254704&units=imperial&q=mahebourg,Mauritius,75.2,83.0,75.0,11.41,1561519996.0
bambous virieux,MU,-20.34,57.76,http://api.openweathermap.org/data/2.5/weather?appid=fe26e61e3773caebdade519f9d254704&units=imperial&q=bambous virieux,Mauritius,75.2,83.0,75.0,11.41,1561520113.0
grand river south east,MU,,,http://api.openweathermap.org/data/2.5/weather?appid=fe26e61e3773caebdade519f9d254704&units=imperial&q=grand river south east,Mauritius,,,,,
souillac,MU,45.6,-0.6,http://api.openweathermap.org/data/2.5/weather?appid=fe26e61e3773caebdade519f9d254704&units=imperial&q=souillac,Mauritius,70.0,83.0,0.0,3.36,1561520136.0
hobyo,SO,5.35,48.53,http://api.openweathermap.org/data/2.5/weather?appid=fe26e61e3773caebdade519f9d254704&units=imperial&q=hobyo,Somalia,76.22,70.0,27.0,14.67,1561519991.0
eyl,SO,7.98,49.82,http://api.openweathermap.org/data/2.5/weather?appid=fe26e61e3773caebdade519f9d254704&units=imperial&q=eyl,Somalia,77.66,69.0,100.0,28.7,1561520137.0
puerto ayora,EC,-0.74,-90.35,http://api.openweathermap.org/data/2.5/weather?appid=fe26e61e3773caebdade519f9d254704&units=imperial&q=puerto ayora,Ecuador,72.08,85.0,18.0,10.22,1561519996.0
muisne,EC,0.61,-80.02,http://api.openweathermap.org/data/2.5/weather?appid=fe26e61e3773caebdade519f9d254704&units=imperial&q=muisne,Ecuador,76.04,86.0,25.0,14.5,1561520137.0
manta,EC,45.1,24.1,http://api.openweathermap.org/data/2.5/weather?appid=fe26e61e3773caebdade519f9d254704&units=imperial&q=manta,Ecuador,63.08,76.0,0.0,1.95,1561520137.0
san cristobal,EC,-0.39,-78.55,http://api.openweathermap.org/data/2.5/weather?appid=fe26e61e3773caebdade519f9d254704&units=imperial&q=san cristobal,Ecuador,53.6,93.0,75.0,5.82,1561520137.0
jamestown,SH,-33.21,138.6,http://api.openweathermap.org/data/2.5/weather?appid=fe26e61e3773caebdade519f9d254704&units=imperial&q=jamestown,"Saint Helena, Ascension and Tristan da Cunha",61.82,47.0,0.0,11.14,1561520095.0
georgetown,SH,6.8,-58.16,http://api.openweathermap.org/data/2.5/weather?appid=fe26e61e3773caebdade519f9d254704&units=imperial&q=georgetown,"Saint Helena, Ascension and Tristan da Cunha",77.0,94.0,20.0,4.7,1561519903.0
luanda,AO,-8.83,13.24,http://api.openweathermap.org/data/2.5/weather?appid=fe26e61e3773caebdade519f9d254704&units=imperial&q=luanda,Angola,68.0,88.0,40.0,2.24,1561520138.0
namibe,AO,-15.19,12.15,http://api.openweathermap.org/data/2.5/weather?appid=fe26e61e3773caebdade519f9d254704&units=imperial&q=namibe,Angola,63.98,82.0,24.0,8.99,1561520138.0
menongue,AO,-14.66,17.68,http://api.openweathermap.org/data/2.5/weather?appid=fe26e61e3773caebdade519f9d254704&units=imperial&q=menongue,Angola,47.78,50.0,0.0,3.09,1561520138.0
omboue,GA,-1.57,9.26,http://api.openweathermap.org/data/2.5/weather?appid=fe26e61e3773caebdade519f9d254704&units=imperial&q=omboue,Gabon,74.96,79.0,79.0,14.72,1561520138.0
gamba,GA,28.28,88.52,http://api.openweathermap.org/data/2.5/weather?appid=fe26e61e3773caebdade519f9d254704&units=imperial&q=gamba,Gabon,48.86,49.0,31.0,6.38,1561520139.0
port-gentil,GA,-0.72,8.78,http://api.openweathermap.org/data/2.5/weather?appid=fe26e61e3773caebdade519f9d254704&units=imperial&q=port-gentil,Gabon,76.04,78.0,31.0,15.12,1561520139.0
waddan,LY,29.16,16.14,http://api.openweathermap.org/data/2.5/weather?appid=fe26e61e3773caebdade519f9d254704&units=imperial&q=waddan,Libya,79.1,41.0,0.0,5.61,1561520139.0
gat,LY,14.69,-16.54,http://api.openweathermap.org/data/2.5/weather?appid=fe26e61e3773caebdade519f9d254704&units=imperial&q=gat,Libya,75.2,88.0,0.0,8.05,1561520139.0
hithadhoo,MV,-0.6,73.08,http://api.openweathermap.org/data/2.5/weather?appid=fe26e61e3773caebdade519f9d254704&units=imperial&q=hithadhoo,Maldives,84.14,70.0,58.0,6.8,1561520020.0
kapit,MY,2.02,112.94,http://api.openweathermap.org/data/2.5/weather?appid=fe26e61e3773caebdade519f9d254704&units=imperial&q=kapit,Malaysia,82.7,91.0,60.0,1.36,1561520139.0
banting,MY,2.82,101.5,http://api.openweathermap.org/data/2.5/weather?appid=fe26e61e3773caebdade519f9d254704&units=imperial&q=banting,Malaysia,82.99,83.0,75.0,4.7,1561520139.0
ornskoldsvik,SE,63.29,18.72,http://api.openweathermap.org/data/2.5/weather?appid=fe26e61e3773caebdade519f9d254704&units=imperial&q=ornskoldsvik,Sweden,55.4,93.0,64.0,4.7,1561520140.0
kiruna,SE,67.86,20.23,http://api.openweathermap.org/data/2.5/weather?appid=fe26e61e3773caebdade519f9d254704&units=imperial&q=kiruna,Sweden,42.8,87.0,96.0,2.62,1561520140.0
kaffrine,SN,14.1,-15.55,http://api.openweathermap.org/data/2.5/weather?appid=fe26e61e3773caebdade519f9d254704&units=imperial&q=kaffrine,Senegal,77.0,83.0,0.0,4.7,1561520140.0
pavilosta,LV,56.89,21.19,http://api.openweathermap.org/data/2.5/weather?appid=fe26e61e3773caebdade519f9d254704&units=imperial&q=pavilosta,Latvia,55.4,100.0,100.0,3.36,1561520140.0
ventspils,LV,57.39,21.56,http://api.openweathermap.org/data/2.5/weather?appid=fe26e61e3773caebdade519f9d254704&units=imperial&q=ventspils,Latvia,55.4,93.0,0.0,5.66,1561520140.0
slavonski brod,HR,45.17,18.01,http://api.openweathermap.org/data/2.5/weather?appid=fe26e61e3773caebdade519f9d254704&units=imperial&q=slavonski brod,Croatia,68.0,100.0,61.0,3.36,1561520140.0
senj,HR,45.35,13.91,http://api.openweathermap.org/data/2.5/weather?appid=fe26e61e3773caebdade519f9d254704&units=imperial&q=senj,Croatia,77.0,83.0,0.0,5.82,1561520141.0
ponta do sol,CV,-20.63,-46.0,http://api.openweathermap.org/data/2.5/weather?appid=fe26e61e3773caebdade519f9d254704&units=imperial&q=ponta do sol,Cape Verde,65.6,66.0,96.0,3.74,1561520141.0
sao filipe,CV,14.9,-24.5,http://api.openweathermap.org/data/2.5/weather?appid=fe26e61e3773caebdade519f9d254704&units=imperial&q=sao filipe,Cape Verde,74.42,85.0,0.0,17.94,1561520141.0
sal rei,CV,16.18,-22.92,http://api.openweathermap.org/data/2.5/weather?appid=fe26e61e3773caebdade519f9d254704&units=imperial&q=sal rei,Cape Verde,73.4,88.0,20.0,14.99,1561520141.0
luganville,VU,-15.51,167.18,http://api.openweathermap.org/data/2.5/weather?appid=fe26e61e3773caebdade519f9d254704&units=imperial&q=luganville,Vanuatu,80.6,83.0,75.0,11.41,1561520141.0
isangel,VU,-19.55,169.27,http://api.openweathermap.org/data/2.5/weather?appid=fe26e61e3773caebdade519f9d254704&units=imperial&q=isangel,Vanuatu,82.4,69.0,75.0,13.87,1561520141.0
vila,VU,45.18,8.4,http://api.openweathermap.org/data/2.5/weather?appid=fe26e61e3773caebdade519f9d254704&units=imperial&q=vila,Vanuatu,81.0,78.0,75.0,6.93,1561520142.0
mitsamiouli,KM,-11.38,43.28,http://api.openweathermap.org/data/2.5/weather?appid=fe26e61e3773caebdade519f9d254704&units=imperial&q=mitsamiouli,Comoros,71.6,88.0,75.0,4.7,1561520142.0
moroni,KM,39.52,-111.59,http://api.openweathermap.org/data/2.5/weather?appid=fe26e61e3773caebdade519f9d254704&units=imperial&q=moroni,Comoros,75.0,28.0,60.0,15.43,1561520142.0
yenagoa,NG,4.92,6.26,http://api.openweathermap.org/data/2.5/weather?appid=fe26e61e3773caebdade519f9d254704&units=imperial&q=yenagoa,Nigeria,72.8,93.0,100.0,4.94,1561520142.0
pathein,MM,16.78,94.73,http://api.openweathermap.org/data/2.5/weather?appid=fe26e61e3773caebdade519f9d254704&units=imperial&q=pathein,Myanmar,83.6,79.0,100.0,7.27,1561520142.0
mergui,MM,,,http://api.openweathermap.org/data/2.5/weather?appid=fe26e61e3773caebdade519f9d254704&units=imperial&q=mergui,Myanmar,,,,,
dawei,MM,14.07,98.19,http://api.openweathermap.org/data/2.5/weather?appid=fe26e61e3773caebdade519f9d254704&units=imperial&q=dawei,Myanmar,80.72,87.0,100.0,13.35,1561520143.0
ochamchira,GE,42.71,41.47,http://api.openweathermap.org/data/2.5/weather?appid=fe26e61e3773caebdade519f9d254704&units=imperial&q=ochamchira,Georgia,72.8,83.0,1.0,4.18,1561520143.0
plouzane,FR,48.38,-4.62,http://api.openweathermap.org/data/2.5/weather?appid=fe26e61e3773caebdade519f9d254704&units=imperial&q=plouzane,France,62.6,93.0,0.0,6.93,1561520143.0
sens,FR,48.2,3.28,http://api.openweathermap.org/data/2.5/weather?appid=fe26e61e3773caebdade519f9d254704&units=imperial&q=sens,France,68.0,93.0,0.0,4.7,1561520143.0
saint george,BM,39.45,22.34,http://api.openweathermap.org/data/2.5/weather?appid=fe26e61e3773caebdade519f9d254704&units=imperial&q=saint george,Bermuda,75.0,68.0,40.0,1.19,1561520144.0
hamilton,BM,32.3,-64.78,http://api.openweathermap.org/data/2.5/weather?appid=fe26e61e3773caebdade519f9d254704&units=imperial&q=hamilton,Bermuda,78.8,74.0,75.0,9.17,1561520089.0
sarkand,KZ,45.41,79.91,http://api.openweathermap.org/data/2.5/weather?appid=fe26e61e3773caebdade519f9d254704&units=imperial&q=sarkand,Kazakhstan,83.06,24.0,0.0,4.32,1561520144.0
inderborskiy,KZ,,,http://api.openweathermap.org/data/2.5/weather?appid=fe26e61e3773caebdade519f9d254704&units=imperial&q=inderborskiy,Kazakhstan,,,,,
ushtobe,KZ,45.25,77.98,http://api.openweathermap.org/data/2.5/weather?appid=fe26e61e3773caebdade519f9d254704&units=imperial&q=ushtobe,Kazakhstan,82.16,29.0,0.0,6.62,1561520144.0
boralday,KZ,43.36,76.86,http://api.openweathermap.org/data/2.5/weather?appid=fe26e61e3773caebdade519f9d254704&units=imperial&q=boralday,Kazakhstan,78.8,36.0,40.0,2.24,1561520147.0
ekibastuz,KZ,51.72,75.32,http://api.openweathermap.org/data/2.5/weather?appid=fe26e61e3773caebdade519f9d254704&units=imperial&q=ekibastuz,Kazakhstan,79.1,47.0,0.0,13.42,1561520147.0
belousovka,KZ,50.13,82.52,http://api.openweathermap.org/data/2.5/weather?appid=fe26e61e3773caebdade519f9d254704&units=imperial&q=belousovka,Kazakhstan,64.4,59.0,0.0,4.47,1561520078.0
fort-shevchenko,KZ,44.51,50.26,http://api.openweathermap.org/data/2.5/weather?appid=fe26e61e3773caebdade519f9d254704&units=imperial&q=fort-shevchenko,Kazakhstan,79.46,84.0,29.0,13.11,1561520148.0
karacakoy,TR,41.4,28.38,http://api.openweathermap.org/data/2.5/weather?appid=fe26e61e3773caebdade519f9d254704&units=imperial&q=karacakoy,Turkey,78.01,83.0,40.0,20.8,1561520148.0
kumluca,TR,36.37,30.29,http://api.openweathermap.org/data/2.5/weather?appid=fe26e61e3773caebdade519f9d254704&units=imperial&q=kumluca,Turkey,63.62,59.0,0.0,3.67,1561520151.0
kulu,TR,3.47,23.69,http://api.openweathermap.org/data/2.5/weather?appid=fe26e61e3773caebdade519f9d254704&units=imperial&q=kulu,Turkey,68.3,99.0,96.0,1.01,1561520152.0
hendek,TR,40.8,30.75,http://api.openweathermap.org/data/2.5/weather?appid=fe26e61e3773caebdade519f9d254704&units=imperial&q=hendek,Turkey,66.2,100.0,75.0,2.01,1561520152.0
butzow,DE,52.49,12.6,http://api.openweathermap.org/data/2.5/weather?appid=fe26e61e3773caebdade519f9d254704&units=imperial&q=butzow,Germany,73.4,60.0,0.0,3.36,1561520152.0
noumea,NC,-22.28,166.46,http://api.openweathermap.org/data/2.5/weather?appid=fe26e61e3773caebdade519f9d254704&units=imperial&q=noumea,New Caledonia,77.0,69.0,0.0,12.75,1561520152.0
poya,NC,-21.35,165.16,http://api.openweathermap.org/data/2.5/weather?appid=fe26e61e3773caebdade519f9d254704&units=imperial&q=poya,New Caledonia,72.08,91.0,90.0,21.05,1561520152.0
bosobolo,CD,4.19,19.88,http://api.openweathermap.org/data/2.5/weather?appid=fe26e61e3773caebdade519f9d254704&units=imperial&q=bosobolo,"Congo, the Democratic Republic of the",68.84,95.0,100.0,1.63,1561520152.0
kisangani,CD,0.52,25.21,http://api.openweathermap.org/data/2.5/weather?appid=fe26e61e3773caebdade519f9d254704&units=imperial&q=kisangani,"Congo, the Democratic Republic of the",69.74,98.0,93.0,2.26,1561520153.0
wamba,CD,2.14,27.99,http://api.openweathermap.org/data/2.5/weather?appid=fe26e61e3773caebdade519f9d254704&units=imperial&q=wamba,"Congo, the Democratic Republic of the",64.16,98.0,98.0,0.92,1561520153.0
mbanza-ngungu,CD,-5.25,14.87,http://api.openweathermap.org/data/2.5/weather?appid=fe26e61e3773caebdade519f9d254704&units=imperial&q=mbanza-ngungu,"Congo, the Democratic Republic of the",62.18,96.0,54.0,4.12,1561520153.0
goma,CD,-1.67,29.23,http://api.openweathermap.org/data/2.5/weather?appid=fe26e61e3773caebdade519f9d254704&units=imperial&q=goma,"Congo, the Democratic Republic of the",55.52,99.0,98.0,2.24,1561520153.0
boende,CD,-0.28,20.88,http://api.openweathermap.org/data/2.5/weather?appid=fe26e61e3773caebdade519f9d254704&units=imperial&q=boende,"Congo, the Democratic Republic of the",71.72,90.0,97.0,2.55,1561520153.0
chuy,UY,-33.69,-53.46,http://api.openweathermap.org/data/2.5/weather?appid=fe26e61e3773caebdade519f9d254704&units=imperial&q=chuy,Uruguay,47.78,63.0,100.0,16.73,1561520153.0
goderich,SL,43.74,-81.71,http://api.openweathermap.org/data/2.5/weather?appid=fe26e61e3773caebdade519f9d254704&units=imperial&q=goderich,Sierra Leone,71.01,68.0,88.0,7.0,1561520154.0
lungi,SL,9.22,-12.68,http://api.openweathermap.org/data/2.5/weather?appid=fe26e61e3773caebdade519f9d254704&units=imperial&q=lungi,Sierra Leone,75.68,95.0,72.0,2.89,1561520154.0
hofn,IS,64.25,-15.21,http://api.openweathermap.org/data/2.5/weather?appid=fe26e61e3773caebdade519f9d254704&units=imperial&q=hofn,Iceland,41.12,71.0,97.0,9.35,1561520154.0
grindavik,IS,63.84,-22.43,http://api.openweathermap.org/data/2.5/weather?appid=fe26e61e3773caebdade519f9d254704&units=imperial&q=grindavik,Iceland,53.01,100.0,90.0,23.04,1561520087.0
vestmannaeyjar,IS,63.44,-20.27,http://api.openweathermap.org/data/2.5/weather?appid=fe26e61e3773caebdade519f9d254704&units=imperial&q=vestmannaeyjar,Iceland,52.1,92.0,92.0,16.28,1561520154.0
bolungarvik,IS,,,http://api.openweathermap.org/data/2.5/weather?appid=fe26e61e3773caebdade519f9d254704&units=imperial&q=bolungarvik,Iceland,,,,,
dalbandin,PK,28.9,64.41,http://api.openweathermap.org/data/2.5/weather?appid=fe26e61e3773caebdade519f9d254704&units=imperial&q=dalbandin,Pakistan,82.88,36.0,0.0,8.43,1561520155.0
harnoli,PK,32.28,71.55,http://api.openweathermap.org/data/2.5/weather?appid=fe26e61e3773caebdade519f9d254704&units=imperial&q=harnoli,Pakistan,98.0,26.0,0.0,7.45,1561520155.0
mingaora,PK,34.78,72.36,http://api.openweathermap.org/data/2.5/weather?appid=fe26e61e3773caebdade519f9d254704&units=imperial&q=mingaora,Pakistan,74.96,29.0,0.0,2.68,1561519939.0
sangmelima,CM,2.93,11.98,http://api.openweathermap.org/data/2.5/weather?appid=fe26e61e3773caebdade519f9d254704&units=imperial&q=sangmelima,Cameroon,67.04,92.0,100.0,3.87,1561520155.0
poli,CM,8.48,13.24,http://api.openweathermap.org/data/2.5/weather?appid=fe26e61e3773caebdade519f9d254704&units=imperial&q=poli,Cameroon,71.9,92.0,100.0,3.22,1561520155.0
wum,CM,6.39,10.08,http://api.openweathermap.org/data/2.5/weather?appid=fe26e61e3773caebdade519f9d254704&units=imperial&q=wum,Cameroon,64.52,98.0,100.0,2.82,1561520156.0
ginir,ET,7.14,40.71,http://api.openweathermap.org/data/2.5/weather?appid=fe26e61e3773caebdade519f9d254704&units=imperial&q=ginir,Ethiopia,55.88,96.0,6.0,3.65,1561520156.0
tyup,KG,42.73,78.36,http://api.openweathermap.org/data/2.5/weather?appid=fe26e61e3773caebdade519f9d254704&units=imperial&q=tyup,Kyrgyzstan,49.4,59.0,0.0,3.15,1561520156.0
matara,LK,-13.74,-72.9,http://api.openweathermap.org/data/2.5/weather?appid=fe26e61e3773caebdade519f9d254704&units=imperial&q=matara,Sri Lanka,38.42,68.0,69.0,3.78,1561520165.0
point pedro,LK,9.82,80.23,http://api.openweathermap.org/data/2.5/weather?appid=fe26e61e3773caebdade519f9d254704&units=imperial&q=point pedro,Sri Lanka,84.86,77.0,100.0,18.03,1561520165.0
hambantota,LK,6.12,81.12,http://api.openweathermap.org/data/2.5/weather?appid=fe26e61e3773caebdade519f9d254704&units=imperial&q=hambantota,Sri Lanka,86.0,84.0,40.0,11.41,1561520165.0
buraydah,SA,26.33,43.97,http://api.openweathermap.org/data/2.5/weather?appid=fe26e61e3773caebdade519f9d254704&units=imperial&q=buraydah,Saudi Arabia,80.6,26.0,0.0,5.3,1561520166.0
riyadh,SA,24.63,46.72,http://api.openweathermap.org/data/2.5/weather?appid=fe26e61e3773caebdade519f9d254704&units=imperial&q=riyadh,Saudi Arabia,84.2,12.0,0.0,5.82,1561519913.0
mecca,SA,21.43,39.83,http://api.openweathermap.org/data/2.5/weather?appid=fe26e61e3773caebdade519f9d254704&units=imperial&q=mecca,Saudi Arabia,82.52,59.0,0.0,2.53,1561520166.0
saint-pierre,PM,48.95,4.24,http://api.openweathermap.org/data/2.5/weather?appid=fe26e61e3773caebdade519f9d254704&units=imperial&q=saint-pierre,Saint Pierre and Miquelon,68.0,94.0,0.0,8.05,1561520166.0
hovd,MN,63.83,10.7,http://api.openweathermap.org/data/2.5/weather?appid=fe26e61e3773caebdade519f9d254704&units=imperial&q=hovd,Mongolia,52.0,81.0,75.0,17.22,1561520167.0
bulgan,MN,48.81,103.53,http://api.openweathermap.org/data/2.5/weather?appid=fe26e61e3773caebdade519f9d254704&units=imperial&q=bulgan,Mongolia,56.96,41.0,5.0,12.21,1561520167.0
baruun-urt,MN,46.68,113.28,http://api.openweathermap.org/data/2.5/weather?appid=fe26e61e3773caebdade519f9d254704&units=imperial&q=baruun-urt,Mongolia,77.12,30.0,0.0,11.63,1561520167.0
mwingi,KE,-0.93,38.07,http://api.openweathermap.org/data/2.5/weather?appid=fe26e61e3773caebdade519f9d254704&units=imperial&q=mwingi,Kenya,59.66,91.0,6.0,4.32,1561520167.0
tonj,SD,,,http://api.openweathermap.org/data/2.5/weather?appid=fe26e61e3773caebdade519f9d254704&units=imperial&q=tonj,Sudan,,,,,
kutum,SD,14.2,24.66,http://api.openweathermap.org/data/2.5/weather?appid=fe26e61e3773caebdade519f9d254704&units=imperial&q=kutum,Sudan,75.14,54.0,99.0,1.41,1561520170.0
umm kaddadah,SD,13.6,26.69,http://api.openweathermap.org/data/2.5/weather?appid=fe26e61e3773caebdade519f9d254704&units=imperial&q=umm kaddadah,Sudan,83.6,48.0,100.0,12.28,1561520170.0
navabad,TJ,,,http://api.openweathermap.org/data/2.5/weather?appid=fe26e61e3773caebdade519f9d254704&units=imperial&q=navabad,Tajikistan,,,,,
bilma,NE,18.69,12.92,http://api.openweathermap.org/data/2.5/weather?appid=fe26e61e3773caebdade519f9d254704&units=imperial&q=bilma,Niger,87.74,26.0,0.0,9.37,1561520174.0
arlit,NE,18.74,7.39,http://api.openweathermap.org/data/2.5/weather?appid=fe26e61e3773caebdade519f9d254704&units=imperial&q=arlit,Niger,90.8,25.0,0.0,5.39,1561520174.0
gizycko,PL,54.04,21.76,http://api.openweathermap.org/data/2.5/weather?appid=fe26e61e3773caebdade519f9d254704&units=imperial&q=gizycko,Poland,67.76,84.0,87.0,10.16,1561520174.0
kivsharivka,UA,49.63,37.68,http://api.openweathermap.org/data/2.5/weather?appid=fe26e61e3773caebdade519f9d254704&units=imperial&q=kivsharivka,Ukraine,59.3,85.0,9.0,7.45,1561520174.0
zaozerne,UA,51.37,23.94,http://api.openweathermap.org/data/2.5/weather?appid=fe26e61e3773caebdade519f9d254704&units=imperial&q=zaozerne,Ukraine,61.82,87.0,97.0,5.73,1561520174.0
linden,GY,6.01,-58.31,http://api.openweathermap.org/data/2.5/weather?appid=fe26e61e3773caebdade519f9d254704&units=imperial&q=linden,Guyana,77.0,94.0,20.0,4.7,1561520175.0
lethem,GY,3.38,-59.8,http://api.openweathermap.org/data/2.5/weather?appid=fe26e61e3773caebdade519f9d254704&units=imperial&q=lethem,Guyana,77.3,81.0,39.0,8.55,1561520175.0
kilindoni,TZ,-7.91,39.67,http://api.openweathermap.org/data/2.5/weather?appid=fe26e61e3773caebdade519f9d254704&units=imperial&q=kilindoni,"Tanzania, United Republic of",78.2,77.0,0.0,16.51,1561520178.0
